     2.11           OBSERVATION DATA    C (Beidou)          RINEX VERSION / TYPE
teqc  2017Sep15                         20180516 06:03:57UTCPGM / RUN BY / DATE
Linux2.6.32-573.12.1.el6.x86_64|x86_64|gcc|Win64-MinGW64|=+ COMMENT
   0.000      (antenna height)                              COMMENT
 +22.80331380 (latitude)                                    COMMENT
+120.35725355 (longitude)                                   COMMENT
0065.626      (elevation)                                   COMMENT
BIT 2 OF LLI FLAGS DATA COLLECTED UNDER A/S CONDITION       COMMENT
aknd (COGO code)                                            COMMENT
AKND                                                        MARKER NAME
AKND                                                        MARKER NUMBER
-Unknown-           -Unknown-                               OBSERVER / AGENCY
5331K44829          TRIMBLE NETR9       5.03                REC # / TYPE / VERS
00120145            TRM57971.00     SCIT                    ANT # / TYPE
 -2973030.9896  5076081.8944  2456680.6624                  APPROX POSITION XYZ
        0.0000        0.0000        0.0000                  ANTENNA: DELTA H/E/N
     1     1                                                WAVELENGTH FACT L1/2
     4    L1    L7    C1    C7                              # / TYPES OF OBSERV
    18                                                      LEAP SECONDS
 SNR is mapped to RINEX snr flag value [0-9]                COMMENT
  L1 & L2: min(max(int(snr_dBHz/6), 0), 9)                  COMMENT
D:/gpsteqc/teqc edited: all NAVSTAR GPS satellites excluded COMMENT
D:/gpsteqc/teqc edited: all GLONASS satellites excluded     COMMENT
D:/gpsteqc/teqc edited: all SBAS satellites excluded        COMMENT
D:/gpsteqc/teqc edited: all Galileo satellites excluded     COMMENT
D:/gpsteqc/teqc edited: all QZSS satellites excluded        COMMENT
  2018     5    16     3     0    0.0000000     GPS         TIME OF FIRST OBS
                                                            END OF HEADER
 18  5 16  3  0  0.0000000  0 11C02C05C04C08C01C10C13C09C06C03C07
 195915499.733 6 151494253.936 7  37623518.414    37623513.105
 206767563.852 5 159885783.852 5  39707555.297    39707551.660
 197705563.541 6 152878451.733 6  37967280.664    37967275.484
 199500028.098 6 154266080.497 6  38311880.656    38311877.637
 191551858.129 6 148119990.980 7  36785525.781    36785516.762
 196312533.751 6 151801266.484 7  37699758.219    37699755.328
 208126356.601 6 160936530.849 6  39968479.641    39968484.863
 192265379.444 7 148671801.281 7  36922528.672    36922526.211
 196362837.593 7 151840263.791 6  37709418.805    37709414.867
 190121762.174 6 147014174.550 7  36510889.195    36510883.395
 191727151.483 7 148255559.828 7  36819185.422    36819180.035
 18  5 16  3  0  1.0000000  0 11C02C05C04C08C01C10C13C09C06C03C07
 195915491.501 6 151494247.571 7  37623517.141    37623511.727
 206767556.092 6 159885777.853 6  39707553.273    39707550.066
 197705553.871 6 152878444.259 6  37967278.883    37967273.617
 199498304.898 6 154264748.010 6  38311549.461    38311546.738
 191551839.363 6 148119976.465 7  36785521.844    36785513.277
 196312515.622 7 151801252.467 7  37699754.352    37699751.961
 208124870.794 6 160935381.936 6  39968194.141    39968199.449
 192266657.864 7 148672789.838 7  36922773.977    36922771.809
 196364403.485 6 151841474.630 6  37709719.438    37709715.297
 190121742.600 6 147014159.416 7  36510885.398    36510879.422
 191727026.526 7 148255463.206 7  36819162.023    36819155.766
 18  5 16  3  0  2.0000000  0 11C02C05C04C08C01C10C13C09C06C03C07
 195915483.093 6 151494241.063 7  37623515.125    37623510.027
 206767548.166 5 159885771.724 6  39707552.055    39707548.516
 197705544.039 6 152878436.655 6  37967276.977    37967272.199
 199496581.561 6 154263415.411 6  38311218.195    38311215.492
 191551820.412 6 148119961.813 7  36785518.219    36785509.664
 196312497.241 7 151801238.256 7  37699751.172    37699748.805
 208123384.801 6 160934232.873 6  39967908.227    39967914.215
 192267936.258 7 148673778.370 7  36923019.453    36923017.211
 196365969.252 6 151842685.383 6  37710020.383    37710016.207
 190121722.841 6 147014144.139 7  36510881.328    36510875.824
 191726901.285 7 148255366.359 7  36819138.422    36819131.980
 18  5 16  3  0  3.0000000  0 11C02C05C04C08C01C10C13C09C06C03C07
 195915474.762 6 151494234.627 7  37623513.750    37623508.031
 206767540.301 5 159885765.643 5  39707550.477    39707547.098
 197705534.301 6 152878429.124 6  37967274.648    37967270.102
 199494858.305 6 154262082.882 6  38310887.805    38310884.379
 191551801.586 6 148119947.256 7  36785515.188    36785506.230
 196312478.873 7 151801224.057 7  37699747.469    37699744.922
 208121898.832 6 160933083.824 6  39967622.766    39967628.996
 192269214.846 7 148674767.052 7  36923264.734    36923263.012
 196367535.169 7 151843896.239 6  37710321.008    37710316.711
 190121703.173 6 147014128.929 7  36510877.625    36510871.871
 191726776.052 7 148255269.515 7  36819113.680    36819107.871
 18  5 16  3  0  4.0000000  0 11C02C05C04C08C01C10C13C09C06C03C07
 195915466.428 6 151494228.179 7  37623512.023    37623506.836
 206767532.451 5 159885759.573 6  39707549.414    39707545.695
 197705524.573 6 152878421.603 6  37967272.695    37967268.395
 199493135.160 6 154260750.439 6  38310556.563    38310553.637
 191551782.743 6 148119932.687 7  36785511.570    36785502.457
 196312460.442 6 151801209.807 7  37699744.180    37699741.367
 208120412.861 6 160931934.776 6  39967337.625    39967343.570
 192270493.615 7 148675755.879 7  36923510.586    36923508.512
 196369101.158 7 151845107.164 6  37710622.258    37710617.715
 190121683.560 6 147014113.760 7  36510874.078    36510868.324
 191726650.775 7 148255172.647 7  36819089.430    36819083.633
 18  5 16  3  0  5.0000000  0 11C02C05C04C08C01C10C13C09C06C03C07
 195915457.985 6 151494221.651 7  37623510.656    37623505.391
 206767524.481 5 159885753.407 5  39707547.320    39707544.031
 197705514.707 6 152878413.973 6  37967270.867    37967266.055
 199491411.883 6 154259417.893 6  38310225.383    38310222.625
 191551763.804 6 148119918.037 7  36785507.914    36785499.266
 196312441.808 6 151801195.396 7  37699740.563    37699737.734
 208118926.731 6 160930785.607 6  39967052.055    39967057.961
 192271772.346 7 148676744.670 7  36923755.969    36923754.227
 196370667.053 6 151846318.017 6  37710922.547    37710918.625
 190121663.799 6 147014098.478 7  36510870.023    36510864.656
 191726525.244 7 148255075.577 7  36819065.688    36819059.859
 18  5 16  3  0  6.0000000  0 11C02C05C04C08C01C10C13C09C06C03C07
 195915449.560 6 151494215.136 7  37623509.047    37623503.578
 206767516.542 5 159885747.280 5  39707545.930    39707542.281
 197705504.860 6 152878406.362 6  37967268.773    37967264.223
 199489688.638 6 154258085.375 6  38309895.016    38309891.516
 191551744.836 6 148119903.371 7  36785504.133    36785495.309
 196312423.070 6 151801180.902 7  37699736.961    37699733.980
 208117440.527 6 160929636.379 6  39966767.898    39966773.117
 192273051.253 7 148677733.604 7  36924001.680    36923999.297
 196372233.025 6 151847528.926 6  37711223.047    37711219.500
 190121644.042 6 147014083.201 7  36510866.484    36510860.559
 191726399.645 7 148254978.450 7  36819041.297    36819035.797
 18  5 16  3  0  7.0000000  0 11C02C05C04C08C01C10C13C09C06C03C07
 195915441.367 6 151494208.799 7  37623507.047    37623502.305
 206767508.897 5 159885741.365 5  39707544.125    39707540.664
 197705495.288 6 152878398.959 7  37967266.898    37967262.406
 199487965.717 6 154256753.109 6  38309564.336    38309561.035
 191551726.197 6 148119888.957 7  36785500.398    36785491.551
 196312404.549 6 151801166.576 7  37699733.508    37699730.633
 208115954.550 6 160928487.326 6  39966481.875    39966487.391
 192274330.548 7 148678722.833 7  36924247.734    36924245.215
 196373799.306 7 151848740.075 6  37711524.352    37711520.227
 190121624.572 6 147014068.146 7  36510862.508    36510856.887
 191726274.247 7 148254881.483 7  36819017.234    36819011.434
 18  5 16  3  0  8.0000000  0 11C02C05C04C08C01C10C13C09C06C03C07
 195915433.186 6 151494202.471 7  37623505.938    37623500.438
 206767501.199 5 159885735.403 5  39707543.008    39707539.625
 197705485.669 6 152878391.515 6  37967265.531    37967260.691
 199486242.813 6 154255420.854 6  38309233.070    38309230.016
 191551707.503 6 148119874.503 7  36785497.164    36785488.098
 196312385.901 6 151801152.152 7  37699729.805    37699727.203
 208114468.551 6 160927338.255 6  39966196.633    39966201.793
 192275609.999 7 148679712.188 7  36924493.273    36924490.754
 196375365.649 7 151849951.264 6  37711824.953    37711820.895
 190121605.066 6 147014053.065 7  36510858.836    36510853.145
 191726148.724 7 148254784.422 7  36818993.273    36818987.496
 18  5 16  3  0  9.0000000  0 11C02C05C04C08C01C10C13C09C06C03C07
 195915424.809 6 151494195.989 7  37623504.141    37623498.871
 206767493.279 5 159885729.279 5  39707541.523    39707537.945
 197705475.884 6 152878383.951 6  37967263.336    37967258.605
 199484519.765 6 154254088.486 6  38308901.742    38308899.402
 191551688.618 6 148119859.902 7  36785493.125    36785484.465
 196312366.995 6 151801137.538 7  37699726.234    37699723.262
 208112982.298 6 160926188.986 6  39965910.859    39965916.602
 192276889.382 7 148680701.495 7  36924738.922    36924736.578
 196376931.840 7 151851162.337 6  37712125.789    37712122.117
 190121585.368 6 147014037.831 7  36510854.953    36510849.762
 191726022.910 7 148254687.135 7  36818969.305    36818963.539
 18  5 16  3  0 10.0000000  0 11C02C05C04C08C01C10C13C09C06C03C07
 195915416.845 6 151494189.831 7  37623502.359    37623497.426
 206767485.815 5 159885723.510 6  39707540.031    39707536.754
 197705466.489 6 152878376.685 6  37967261.680    37967257.004
 199482797.140 6 154252756.447 6  38308571.391    38308568.348
 191551670.172 6 148119845.640 7  36785489.461    36785480.715
 196312348.443 6 151801123.193 7  37699722.859    37699719.801
 208111496.456 6 160925040.043 6  39965625.992    39965631.617
 192278169.298 7 148681691.208 7  36924984.820    36924982.574
 196378498.456 7 151852373.744 6  37712426.430    37712422.586
 190121566.077 6 147014022.913 7  36510851.039    36510845.949
 191725897.422 7 148254590.100 7  36818945.430    36818939.031
 18  5 16  3  0 11.0000000  0 11C02C05C04C08C01C10C13C09C06C03C07
 195915408.366 6 151494183.275 7  37623500.984    37623495.551
 206767477.836 5 159885717.335 6  39707538.039    39707535.313
 197705456.654 6 152878369.084 6  37967259.891    37967255.109
 199481074.095 6 154251424.080 6  38308240.148    38308237.637
 191551651.224 6 148119830.984 7  36785485.773    36785477.039
 196312329.301 6 151801108.389 7  37699719.047    37699716.305
 208110010.081 6 160923890.686 6  39965339.914    39965345.531
 192279448.898 7 148682680.669 7  36925230.953    36925227.922
 196380064.716 7 151853584.879 6  37712727.172    37712723.426
 190121546.349 6 147014007.661 7  36510847.703    36510842.082
 191725771.392 7 148254492.645 7  36818920.711    36818915.016
 18  5 16  3  0 12.0000000  0 11C02C05C04C08C01C10C13C09C06C03C07
 195915400.273 6 151494177.014 7  37623499.578    37623494.133
 206767470.265 5 159885711.482 6  39707536.250    39707533.512
 197705447.168 6 152878361.743 6  37967257.594    37967253.785
 199479351.451 6 154250092.019 6  38307909.953    38307906.859
 191551632.654 6 148119816.623 7  36785482.195    36785473.715
 196312310.465 6 151801093.820 7  37699714.664    37699712.496
 208108524.033 6 160922741.577 6  39965054.891    39965060.414
 192280728.997 7 148683670.522 7  36925476.523    36925474.211
 196381631.358 7 151854796.306 6  37713028.141    37713024.480
 190121526.991 6 147013992.694 7  36510844.258    36510838.078
 191725645.630 7 148254395.401 7  36818896.539    36818890.496
 18  5 16  3  0 13.0000000  0 11C02C05C04C08C01C10C13C09C06C03C07
 195915392.340 6 151494170.880 7  37623497.938    37623492.504
 206767462.815 5 159885705.719 5  39707534.969    39707531.988
 197705437.834 6 152878354.529 6  37967256.109    37967251.930
 199477629.012 6 154248760.119 6  38307579.406    38307575.977
 191551614.218 6 148119802.369 7  36785478.609    36785469.898
 196312291.625 6 151801079.252 7  37699711.711    37699709.043
 208107038.094 6 160921592.556 6  39964769.602    39964774.953
 192282009.368 7 148684660.585 7  36925722.344    36925720.129
 196383198.202 7 151856007.879 6  37713328.922    37713325.336
 190121507.741 6 147013977.805 7  36510839.672    36510834.418
 191725519.926 7 148254298.198 7  36818872.875    36818866.488
 18  5 16  3  0 14.0000000  0 11C02C05C04C08C01C10C13C09C06C03C07
 195915383.961 6 151494164.405 7  37623496.391    37623490.820
 206767454.946 5 159885699.636 5  39707533.320    39707530.652
 197705428.092 6 152878346.989 6  37967253.930    37967249.516
 199475906.165 6 154247427.903 6  38307248.344    38307245.121
 191551595.401 6 148119787.812 7  36785475.078    36785466.914
 196312272.368 6 151801064.365 7  37699707.977    37699704.914
 208105551.696 6 160920443.174 6  39964483.797    39964489.371
 192283289.474 7 148685650.448 7  36925968.109    36925966.047
 196384764.707 7 151857219.197 6  37713629.523    37713626.000
 190121488.086 6 147013962.606 7  36510836.305    36510830.863
 191725393.692 7 148254200.581 7  36818848.602    36818842.223
 18  5 16  3  0 15.0000000  0 11C02C05C04C08C01C10C13C09C06C03C07
 195915375.614 6 151494157.950 7  37623494.852    37623489.723
 206767447.105 6 159885693.575 5  39707532.125    39707529.262
 197705418.344 6 152878339.453 6  37967252.508    37967247.602
 199474183.347 6 154246095.713 6  38306917.336    38306914.523
 191551576.610 6 148119773.284 7  36785471.617    36785462.773
 196312253.023 6 151801049.408 7  37699703.984    37699701.406
 208104065.276 6 160919293.774 6  39964198.477    39964203.637
 192284569.710 7 148686640.403 7  36926213.586    36926211.590
 196386331.255 7 151858430.547 6  37713930.820    37713926.785
 190121468.480 6 147013947.449 7  36510832.711    36510827.395
 191725267.440 7 148254102.960 7  36818824.688    36818818.316
 18  5 16  3  0 16.0000000  0 11C02C05C04C08C01C10C13C09C06C03C07
 195915367.313 6 151494151.531 7  37623492.625    37623487.570
 206767439.306 6 159885687.539 5  39707530.938    39707527.582
 197705408.656 6 152878331.962 6  37967250.438    37967246.043
 199472460.667 6 154244763.634 6  38306586.063    38306583.426
 191551557.858 6 148119758.784 7  36785467.773    36785459.484
 196312233.642 6 151801034.414 7  37699700.031    37699697.977
 208102578.871 6 160918144.392 6  39963912.969    39963918.168
 192285850.164 7 148687630.536 7  36926459.328    36926457.375
 196387897.962 7 151859642.029 6  37714231.438    37714227.410
 190121448.909 6 147013932.313 7  36510829.039    36510823.496
 191725141.169 7 148254005.321 7  36818800.141    36818793.938
 18  5 16  3  0 17.0000000  0 11C02C05C04C08C01C10C13C09C06C03C07
 195915359.028 6 151494145.122 7  37623491.031    37623486.082
 206767431.539 6 159885681.538 5  39707529.664    39707526.391
 197705399.030 6 152878324.517 6  37967248.352    37967243.906
 199470738.069 6 154243431.616 6  38306255.430    38306252.668
 191551539.090 6 148119744.276 7  36785464.031    36785455.914
 196312214.216 7 151801019.398 7  37699696.625    37699694.012
 208101092.453 6 160916995.007 6  39963627.680    39963633.074
 192287130.772 7 148688620.784 7  36926705.992    36926703.250
 196389464.657 7 151860853.492 6  37714532.320    37714528.410
 190121429.401 6 147013917.227 7  36510825.273    36510819.637
 191725014.800 7 148253907.605 7  36818775.492    36818769.926
 18  5 16  3  0 18.0000000  0 11C02C05C04C08C01C10C13C09C06C03C07
 195915350.684 6 151494138.667 7  37623490.398    37623484.484
 206767423.681 5 159885675.463 6  39707528.242    39707524.570
 197705389.294 6 152878316.989 7  37967246.953    37967242.113
 199469015.347 6 154242099.501 6  38305924.180    38305922.090
 191551520.291 6 148119729.746 7  36785460.656    36785452.512
 196312194.602 7 151801004.226 7  37699693.336    37699690.141
 208099605.896 6 160915845.510 6  39963342.563    39963347.770
 192288411.435 7 148689611.070 7  36926951.305    36926949.688
 196391031.375 7 151862064.978 6  37714832.797    37714829.012
 190121409.770 6 147013902.044 7  36510821.258    36510815.508
 191724888.248 7 148253809.746 7  36818751.313    36818745.387
 18  5 16  3  0 19.0000000  0 11C02C05C04C08C01C10C13C09C06C03C07
 195915342.569 6 151494132.395 7  37623489.000    37623483.207
 206767416.085 5 159885669.590 6  39707526.594    39707523.180
 197705379.831 6 152878309.674 6  37967245.172    37967240.441
 199467292.979 6 154240767.659 6  38305593.945    38305591.098
 191551501.763 6 148119715.423 7  36785457.445    36785448.781
 196312175.168 7 151800989.199 7  37699689.008    37699686.742
 208098119.610 6 160914696.220 6  39963056.875    39963062.445
 192289692.504 7 148690601.671 7  36927197.758    36927195.559
 196392598.411 7 151863276.705 6  37715134.211    37715130.336
 190121390.423 6 147013887.087 7  36510817.469    36510811.824
 191724761.905 7 148253712.048 7  36818726.477    36818721.203
 18  5 16  3  0 20.0000000  0 11C02C05C04C08C01C10C13C09C06C03C07
 195915334.249 6 151494125.957 7  37623486.820    37623481.613
 206767408.278 6 159885663.547 6  39707525.563    39707521.758
 197705370.102 6 152878302.148 6  37967242.781    37967238.359
 199465570.338 6 154239435.598 6  38305262.805    38305260.422
 191551482.961 6 148119700.874 7  36785453.781    36785445.305
 196312155.432 7 151800973.938 7  37699685.570    37699682.746
 208096633.001 6 160913546.664 6  39962771.070    39962776.781
 192290973.451 7 148691592.174 7  36927443.563    36927441.723
 196394165.238 7 151864488.279 6  37715435.258    37715431.086
 190121370.799 6 147013871.910 7  36510813.742    36510808.293
 191724635.210 7 148253614.079 7  36818702.625    36818697.016
 18  5 16  3  0 21.0000000  0 11C02C05C04C08C01C10C13C09C06C03C07
 195915325.985 6 151494119.566 7  37623485.039    37623479.695
 206767400.533 5 159885657.557 6  39707523.102    39707519.816
 197705360.497 6 152878294.722 7  37967241.328    37967236.488
 199463847.889 6 154238103.696 6  38304932.375    38304929.563
 191551464.252 6 148119686.402 7  36785450.172    36785441.504
 196312135.674 7 151800958.667 7  37699681.648    37699679.148
 208095146.480 6 160912397.194 6  39962485.805    39962491.117
 192292254.632 7 148692582.865 7  36927690.031    36927687.328
 196395732.232 7 151865699.972 6  37715735.883    37715732.375
 190121351.326 6 147013856.851 7  36510810.352    36510804.609
 191724508.540 7 148253516.127 7  36818678.367    36818672.723
 18  5 16  3  0 22.0000000  0 11C02C05C04C08C01C10C13C09C06C03C07
 195915317.390 6 151494112.916 7  37623483.289    37623478.145
 206767392.433 5 159885651.290 6  39707522.516    39707518.703
 197705350.531 6 152878287.015 7  37967239.328    37967234.652
 199462125.174 6 154236771.580 6  38304601.523    38304598.773
 191551445.258 6 148119671.713 7  36785445.945    36785437.773
 196312115.538 7 151800943.100 7  37699677.703    37699675.016
 208093659.552 6 160911247.406 6  39962199.727    39962205.609
 192293535.606 7 148693573.397 7  36927935.469    36927933.566
 196397298.928 7 151866911.441 6  37716037.195    37716033.012
 190121331.500 6 147013841.522 7  36510806.008    36510800.551
 191724381.445 7 148253417.852 7  36818654.086    36818648.191
 18  5 16  3  0 23.0000000  0 11C02C05C04C08C01C10C13C09C06C03C07
 195915309.084 6 151494106.499 7  37623481.766    37623476.621
 206767384.634 5 159885645.259 6  39707520.711    39707516.852
 197705340.876 6 152878279.547 7  37967237.148    37967232.781
 199460402.714 6 154235439.660 6  38304270.664    38304267.582
 191551426.534 6 148119657.232 7  36785442.688    36785434.375
 196312095.606 7 151800927.687 7  37699674.063    37699671.250
 208092172.920 6 160910097.857 6  39961914.219    39961920.098
 192294817.035 7 148694564.283 7  36928181.641    36928179.484
 196398865.997 7 151868123.201 6  37716337.742    37716333.844
 190121311.967 6 147013826.417 7  36510802.570    36510796.938
 191724254.543 7 148253319.721 7  36818629.688    36818623.805
 18  5 16  3  0 24.0000000  0 11C02C05C04C08C01C10C13C09C06C03C07
 195915300.751 6 151494100.052 7  37623480.250    37623475.145
 206767376.849 6 159885639.234 6  39707519.102    39707515.426
 197705331.164 6 152878272.041 7  37967235.625    37967231.047
 199458680.262 6 154234107.761 6  38303940.242    38303936.680
 191551407.780 6 148119642.733 7  36785439.484    36785430.730
 196312075.496 7 151800912.138 7  37699670.227    37699667.488
 208090686.202 6 160908948.235 6  39961629.359    39961634.547
 192296098.558 7 148695555.235 7  36928427.734    36928425.555
 196400433.053 7 151869334.947 6  37716639.148    37716634.707
 190121292.379 6 147013811.268 7  36510798.797    36510793.055
 191724127.530 7 148253221.507 7  36818605.023    36818599.293
 18  5 16  3  0 25.0000000  0 11C02C05C04C08C01C10C13C09C06C03C07
 195915292.534 6 151494093.698 7  37623478.867    37623473.637
 206767369.107 5 159885633.242 6  39707517.133    39707514.313
 197705321.600 6 152878264.637 6  37967234.188    37967229.152
 199456957.978 6 154232775.977 6  38303609.781    38303606.297
 191551389.093 6 148119628.285 7  36785436.070    36785426.750
 196312055.499 6 151800896.672 7  37699666.391    37699663.918
 208089199.517 6 160907798.635 6  39961344.188    39961349.078
 192297380.308 7 148696546.360 7  36928673.547    36928671.730
 196402000.263 7 151870546.809 6  37716939.703    37716936.102
 190121272.931 6 147013796.230 7  36510795.313    36510789.398
 191724000.548 7 148253123.320 7  36818580.484    36818574.758
 18  5 16  3  0 26.0000000  0 11C02C05C04C08C01C10C13C09C06C03C07
 195915284.021 6 151494087.112 7  37623476.875    37623471.594
 206767361.100 6 159885627.051 6  39707515.773    39707512.832
 197705311.738 6 152878257.007 6  37967231.797    37967227.043
 199455235.473 6 154231444.029 6  38303278.609    38303275.629
 191551370.186 6 148119613.668 7  36785431.852    36785423.203
 196312035.064 6 151800880.869 7  37699662.313    37699659.887
 208087712.567 6 160906648.832 6  39961058.000    39961063.629
 192298661.957 7 148697537.415 7  36928919.953    36928917.742
 196403567.272 7 151871758.527 6  37717240.031    37717236.734
 190121253.207 6 147013780.975 7  36510791.164    36510786.063
 191723873.201 7 148253024.844 7  36818556.539    36818550.598
 18  5 16  3  0 27.0000000  0 11C02C05C04C08C01C10C13C09C06C03C07
 195915275.741 6 151494080.712 7  37623475.258    37623469.578
 206767353.360 6 159885621.066 5  39707514.359    39707510.906
 197705302.109 6 152878249.563 6  37967230.500    37967225.355
 199453513.208 6 154230112.258 6  38302947.414    38302944.918
 191551351.516 6 148119599.226 7  36785428.047    36785419.438
 196312014.847 6 151800865.228 7  37699658.844    37699655.852
 208086225.754 6 160905499.137 6  39960773.109    39960777.930
 192299943.941 7 148698528.726 7  36929165.961    36929163.719
 196405134.567 7 151872970.454 6  37717541.375    37717537.648
 190121233.704 6 147013765.898 7  36510787.242    36510782.336
 191723745.987 7 148252926.469 7  36818531.992    36818526.137
 18  5 16  3  0 28.0000000  0 11C02C05C04C08C01C10C13C09C06C03C07
 195915267.367 6 151494074.236 7  37623473.578    37623468.375
 206767345.487 6 159885614.985 6  39707512.961    39707509.590
 197705292.379 6 152878242.038 6  37967228.617    37967223.688
 199451790.872 6 154228780.443 6  38302616.859    38302614.328
 191551332.730 6 148119584.698 7  36785424.570    36785416.148
 196311994.412 6 151800849.425 7  37699654.391    37699652.125
 208084738.854 6 160904349.373 6  39960486.883    39960492.094
 192301225.965 7 148699520.066 7  36929412.469    36929409.875
 196406701.820 7 151874182.349 6  37717842.477    37717838.836
 190121214.093 6 147013750.735 7  36510783.414    36510778.051
 191723618.570 7 148252827.945 7  36818507.008    36818501.508
 18  5 16  3  0 29.0000000  0 11C02C05C04C08C01C10C13C09C06C03C07
 195915259.141 6 151494067.878 7  37623472.438    37623466.945
 206767337.756 5 159885609.011 6  39707511.414    39707507.992
 197705282.751 6 152878234.598 6  37967226.609    37967221.527
 199450068.712 6 154227448.759 6  38302286.297    38302283.520
 191551314.072 6 148119570.270 7  36785421.289    36785412.629
 196311974.018 6 151800833.649 7  37699650.648    37699647.656
 208083252.035 6 160903199.668 6  39960201.281    39960206.887
 192302508.258 7 148700511.611 7  36929658.977    36929656.363
 196408269.251 6 151875394.387 6  37718143.539    37718139.738
 190121194.639 6 147013735.692 7  36510779.953    36510774.168
 191723491.220 7 148252729.467 7  36818483.133    36818476.980
 18  5 16  3  0 30.0000000  0 11C02C05C04C08C01C10C13C09C06C03C07
 195915250.977 6 151494061.564 7  37623470.469    37623465.391
 206767330.105 5 159885603.084 5  39707510.023    39707506.738
 197705273.261 6 152878227.265 6  37967224.570    37967219.438
 199448346.699 6 154226117.190 6  38301955.984    38301952.699
 191551295.513 6 148119555.919 7  36785417.344    36785408.996
 196311953.674 7 151800817.917 7  37699646.875    37699643.816
 208081765.244 6 160902049.983 6  39959916.398    39959921.344
 192303790.783 7 148701503.344 7  36929905.133    36929902.918
 196409836.819 7 151876606.527 6  37718444.320    37718440.602
 190121175.261 6 147013720.707 7  36510776.406    36510771.043
 191723363.878 7 148252630.996 7  36818458.742    36818452.563
 18  5 16  3  0 31.0000000  0 11C02C05C04C08C01C10C13C09C06C03C07
 195915242.648 6 151494055.123 7  37623469.328    37623463.852
 206767322.306 5 159885597.060 5  39707508.797    39707505.500
 197705263.622 6 152878219.810 6  37967222.359    37967217.715
 199446624.512 6 154224785.490 6  38301625.297    38301621.762
 191551276.783 6 148119541.436 7  36785413.383    36785405.258
 196311933.019 6 151800801.954 7  37699643.117    37699639.855
 208080278.265 6 160900900.160 6  39959630.641    39959635.832
 192305073.270 7 148702495.044 7  36930151.438    36930149.031
 196411404.274 7 151877818.576 6  37718745.320    37718741.406
 190121155.728 6 147013705.601 7  36510772.594    36510766.957
 191723236.307 7 148252532.351 7  36818434.078    36818428.566
 18  5 16  3  0 32.0000000  0 11C02C05C04C08C01C10C13C09C06C03C07
 195915234.404 6 151494048.746 7  37623468.008    37623462.391
 206767314.554 5 159885591.064 5  39707507.203    39707503.699
 197705254.036 6 152878212.397 6  37967221.133    37967215.988
 199444902.477 6 154223453.900 6  38301294.859    38301291.063
 191551258.150 6 148119527.027 7  36785410.406    36785401.777
 196311912.411 6 151800786.016 7  37699638.922    37699635.977
 208078791.339 6 160899750.370 6  39959345.070    39959350.086
 192306355.958 7 148703486.902 7  36930397.477    36930395.414
 196412971.856 7 151879030.734 6  37719046.750    37719043.031
 190121136.277 6 147013690.563 7  36510769.008    36510763.191
 191723108.675 7 148252433.654 7  36818409.836    36818403.738
 18  5 16  3  0 33.0000000  0 11C02C05C04C08C01C10C13C09C06C03C07
 195915226.190 6 151494042.394 7  37623466.336    37623460.359
 206767306.851 5 159885585.104 5  39707505.664    39707502.359
 197705244.496 6 152878205.017 6  37967219.117    37967214.375
 199443180.501 6 154222122.357 6  38300963.914    38300960.672
 191551239.544 6 148119512.642 7  36785406.664    36785398.387
 196311891.720 6 151800770.025 7  37699634.656    37699631.906
 208077304.386 6 160898600.563 6  39959059.508    39959064.340
 192307638.843 7 148704478.908 7  36930643.992    36930642.008
 196414539.546 7 151880242.970 6  37719347.773    37719343.828
 190121116.830 6 147013675.526 7  36510765.234    36510759.488
 191722980.996 7 148252334.929 7  36818385.023    36818378.945
 18  5 16  3  0 34.0000000  0 11C02C05C04C08C01C10C13C09C06C03C07
 195915217.820 6 151494035.921 7  37623464.195    37623458.977
 206767298.960 5 159885579.003 5  39707504.563    39707501.137
 197705234.793 6 152878197.508 7  37967217.008    37967212.484
 199441458.422 6 154220790.744 6  38300632.961    38300629.449
 191551220.798 6 148119498.145 7  36785403.453    36785395.016
 196311870.818 6 151800753.864 7  37699630.781    37699628.074
 208075817.218 6 160897450.589 6  39958774.063    39958778.965
 192308921.683 7 148705470.880 7  36930890.492    36930888.125
 196416107.117 7 151881455.114 6  37719649.078    37719644.918
 190121097.283 6 147013660.407 7  36510760.906    36510755.680
 191722853.073 7 148252236.007 7  36818360.422    36818354.160
 18  5 16  3  0 35.0000000  0 11C02C05C04C08C01C10C13C09C06C03C07
 195915209.387 6 151494029.397 7  37623462.781    37623457.344
 206767291.081 6 159885572.914 5  39707502.672    39707499.293
 197705225.020 6 152878189.957 6  37967215.469    37967210.441
 199439736.326 6 154219459.104 6  38300302.727    38300298.770
 191551201.976 6 148119483.590 7  36785399.617    36785391.086
 196311849.799 6 151800737.608 7  37699626.078    37699624.160
 208074329.973 6 160896300.559 6  39958488.273    39958493.484
 192310204.632 7 148706462.930 7  36931136.766    36931134.723
 196417674.669 7 151882667.245 6  37719949.938    37719946.109
 190121077.640 6 147013645.218 7  36510757.281    36510751.828
 191722725.017 7 148252136.988 7  36818335.609    36818329.781
 18  5 16  3  0 36.0000000  0 11C02C05C04C08C01C10C13C09C06C03C07
 195915200.865 6 151494022.810 7  37623461.188    37623455.559
 206767283.064 5 159885566.700 5  39707501.281    39707497.648
 197705215.170 6 152878182.334 6  37967213.703    37967208.672
 199438014.146 6 154218127.409 6  38299971.508    38299968.148
 191551183.083 6 148119468.981 7  36785395.766    36785387.715
 196311828.581 6 151800721.196 7  37699622.633    37699620.098
 208072842.650 6 160895150.456 6  39958203.250    39958207.961
 192311487.638 7 148707455.027 7  36931383.281    36931381.063
 196419242.220 7 151883879.372 6  37720250.609    37720246.887
 190121057.938 6 147013629.981 7  36510753.531    36510748.480
 191722596.803 7 148252037.847 7  36818311.328    36818305.445
 18  5 16  3  0 37.0000000  0 11C02C05C04C08C01C10C13C09C06C03C07
 195915192.457 6 151494016.308 7  37623459.250    37623454.188
 206767275.177 6 159885560.599 5  39707499.578    39707495.863
 197705205.466 6 152878174.833 6  37967211.156    37967206.691
 199436292.141 6 154216795.850 6  38299640.875    38299637.867
 191551164.325 6 148119454.474 7  36785392.164    36785383.957
 196311807.404 7 151800704.815 7  37699618.773    37699616.035
 208071355.318 6 160894000.356 6  39957917.016    39957922.184
 192312770.899 7 148708447.327 7  36931629.977    36931627.574
 196420809.910 7 151885091.608 6  37720552.289    37720547.816
 190121038.358 6 147013614.843 7  36510749.914    36510744.594
 191722468.608 7 148251938.720 7  36818286.570    36818280.918
 18  5 16  3  0 38.0000000  0 11C02C05C04C08C01C10C13C09C06C03C07
 195915184.178 6 151494009.907 7  37623457.633    37623452.238
 206767267.416 6 159885554.597 6  39707497.570    39707494.512
 197705195.830 6 152878167.382 6  37967209.383    37967204.906
 199434570.287 6 154215464.407 6  38299310.047    38299307.207
 191551145.644 6 148119440.027 7  36785389.047    36785380.602
 196311786.227 7 151800688.436 7  37699614.813    37699611.816
 208069868.116 6 160892850.355 6  39957630.859    39957636.473
 192314054.367 7 148709439.790 7  36931876.227    36931873.914
 196422377.792 7 151886303.994 6  37720853.617    37720848.957
 190121018.884 6 147013599.785 7  36510746.398    36510740.750
 191722340.452 7 148251839.618 7  36818262.047    36818255.996
 18  5 16  3  0 39.0000000  0 11C02C05C04C08C01C10C13C09C06C03C07
 195915175.728 6 151494003.368 7  37623456.141    37623450.824
 206767259.460 5 159885548.455 6  39707495.820    39707492.863
 197705186.039 6 152878159.814 6  37967207.406    37967202.891
 199432848.322 6 154214132.871 6  38298979.461    38298976.039
 191551126.818 6 148119425.470 7  36785385.117    36785376.750
 196311764.842 7 151800671.905 7  37699610.602    37699607.180
 208068380.699 6 160891700.198 6  39957345.156    39957351.152
 192315337.851 7 148710432.264 7  36932122.773    36932120.363
 196423945.531 7 151887516.261 6  37721154.375    37721150.328
 190120999.239 6 147013584.598 7  36510742.422    36510737.180
 191722212.015 7 148251740.300 7  36818237.203    36818231.383
 18  5 16  3  0 40.0000000  0 11C02C05C04C08C01C10C13C09C06C03C07
 195915167.560 6 151493997.054 7  37623454.102    37623449.188
 206767251.846 5 159885542.568 6  39707495.391    39707491.262
 197705176.606 6 152878152.517 6  37967205.969    37967201.672
 199431126.700 6 154212801.598 6  38298649.305    38298645.723
 191551108.323 6 148119411.171 7  36785381.625    36785373.238
 196311743.712 7 151800655.572 7  37699606.359    37699603.551
 208066893.606 6 160890550.288 6  39957059.992    39957065.543
 192316621.800 7 148711425.095 7  36932369.547    36932366.992
 196425513.670 7 151888728.841 6  37721455.414    37721451.223
 190120979.953 6 147013569.677 7  36510738.836    36510733.336
 191722083.849 7 148251641.190 7  36818212.797    36818206.797
 18  5 16  3  0 41.0000000  0 11C02C05C04C08C01C10C13C09C06C03C07
 195915158.866 6 151493990.324 7  37623452.977    37623447.336
 206767243.678 6 159885536.254 5  39707493.859    39707489.480
 197705166.600 6 152878144.774 6  37967203.945    37967199.328
 199429404.541 6 154211469.909 6  38298318.680    38298315.102
 191551089.278 6 148119396.446 7  36785378.070    36785369.699
 196311721.917 6 151800638.722 7  37699602.141    37699599.578
 208065405.874 6 160889399.880 6  39956774.344    39956779.660
 192317905.311 7 148712417.585 7  36932615.828    36932613.641
 196427081.309 7 151889941.042 6  37721756.484    37721752.363
 190120960.063 6 147013554.301 7  36510734.836    36510729.551
 191721955.045 7 148251541.592 7  36818188.000    36818181.922
 18  5 16  3  0 42.0000000  0 11C02C05C04C08C01C10C13C09C06C03C07
 195915150.351 6 151493983.737 7  37623452.141    37623445.848
 206767235.718 5 159885530.094 5  39707491.836    39707487.805
 197705156.781 6 152878137.181 6  37967202.227    37967197.406
 199427682.624 6 154210138.414 6  38297987.352    38297984.145
 191551070.408 6 148119381.854 7  36785374.117    36785366.098
 196311700.222 6 151800621.949 7  37699597.906    37699595.324
 208063918.293 6 160888249.590 6  39956489.313    39956493.961
 192319189.141 7 148713410.323 7  36932862.227    36932859.926
 196428649.160 7 151891153.399 6  37722057.578    37722053.676
 190120940.388 6 147013539.086 7  36510730.969    36510725.820
 191721826.329 7 148251442.061 7  36818163.258    36818157.703
 18  5 16  3  0 43.0000000  0 11C02C05C04C08C01C10C13C09C06C03C07
 195915142.020 6 151493977.297 7  37623449.703    37623444.242
 206767227.856 6 159885524.017 6  39707490.648    39707486.465
 197705147.139 6 152878129.727 6  37967199.961    37967195.625
 199425960.881 6 154208807.057 6  38297657.039    38297653.383
 191551051.700 6 148119367.385 7  36785370.445    36785362.500
 196311678.613 7 151800605.233 7  37699594.391    37699591.555
 208062430.869 6 160887099.417 6  39956203.492    39956208.477
 192320473.262 7 148714403.282 7  36933109.070    36933106.441
 196430217.240 7 151892365.942 6  37722358.430    37722354.832
 190120920.884 6 147013524.005 7  36510727.195    36510721.949
 191721697.678 7 148251342.578 7  36818138.695    36818132.801
 18  5 16  3  0 44.0000000  0 11C02C05C04C08C01C10C13C09C06C03C07
 195915133.682 6 151493970.847 7  37623448.102    37623442.793
 206767220.092 6 159885518.007 6  39707489.383    39707484.863
 197705137.512 6 152878122.279 7  37967198.125    37967193.941
 199424239.289 6 154207475.813 6  38297326.406    38297323.039
 191551033.081 6 148119352.987 7  36785367.180    36785358.996
 196311656.990 6 151800588.516 7  37699589.500    37699587.449
 208060943.466 6 160885949.258 6  39955917.602    39955923.012
 192321757.570 7 148715396.389 7  36933355.203    36933353.211
 196431785.459 7 151893578.580 6  37722659.734    37722656.180
 190120901.434 6 147013508.961 7  36510723.688    36510718.383
 191721569.003 7 148251243.077 7  36818113.898    36818107.961
 18  5 16  3  0 45.0000000  0 11C02C05C04C08C01C10C13C09C06C03C07
 195915125.166 6 151493964.264 7  37623446.688    37623441.250
 206767212.105 5 159885511.827 5  39707487.914    39707483.199
 197705127.699 6 152878114.690 6  37967196.266    37967191.930
 199422517.467 6 154206144.396 6  38296995.648    38296991.805
 191551014.201 6 148119338.385 7  36785363.328    36785355.273
 196311635.055 7 151800571.554 7  37699585.914    37699583.309
 208059455.791 6 160884798.891 6  39955631.813    39955637.230
 192323041.830 7 148716389.460 7  36933601.820    36933599.758
 196433353.457 6 151894791.053 6  37722960.438    37722956.785
 190120881.741 6 147013493.736 7  36510720.227    36510714.457
 191721440.044 7 148251143.356 7  36818088.930    36818083.410
 18  5 16  3  0 46.0000000  0 11C02C05C04C08C01C10C13C09C06C03C07
 195915116.794 6 151493957.797 7  37623445.109    37623439.914
 206767204.295 5 159885505.781 5  39707486.445    39707481.883
 197705118.068 6 152878107.248 6  37967194.219    37967190.023
 199420795.899 6 154204813.171 6  38296665.242    38296661.672
 191550995.530 6 148119323.946 7  36785360.109    36785351.539
 196311613.191 7 151800554.644 7  37699581.758    37699578.770
 208057968.284 6 160883648.656 6  39955346.102    39955351.172
 192324326.372 7 148717382.756 7  36933848.781    36933846.270
 196434921.718 7 151896003.734 6  37723262.430    37723257.863
 190120862.275 6 147013478.682 7  36510716.023    36510711.004
 191721311.141 7 148251043.681 7  36818064.172    36818058.734
 18  5 16  3  0 47.0000000  0 11C02C05C04C08C01C10C13C09C06C03C07
 195915108.806 6 151493951.620 7  37623443.805    37623437.992
 206767196.777 5 159885499.970 5  39707485.125    39707480.328
 197705108.762 6 152878100.050 6  37967192.727    37967188.547
 199419074.656 6 154203482.197 6  38296334.406    38296330.895
 191550977.218 6 148119309.784 7  36785356.789    36785347.957
 196311591.589 7 151800537.944 7  37699577.438    37699574.461
 208056481.010 6 160882498.601 6  39955060.594    39955065.684
 192325611.396 7 148718376.416 7  36934095.344    36934093.211
 196436490.348 7 151897216.694 6  37723563.109    37723559.203
 190120843.112 6 147013463.862 7  36510711.953    36510707.008
 191721182.484 7 148250944.200 7  36818039.711    36818033.797
 18  5 16  3  0 48.0000000  0 11C02C05C04C08C01C10C13C09C06C03C07
 195915100.405 6 151493945.122 7  37623442.016    37623436.941
 206767188.989 5 159885493.951 5  39707483.430    39707478.766
 197705099.064 6 152878092.553 6  37967190.938    37967186.422
 199417353.090 6 154202150.978 6  38296003.758    38296000.266
 191550958.481 6 148119295.299 7  36785352.711    36785344.191
 196311569.511 7 151800520.876 7  37699572.836    37699570.398
 208054993.371 6 160881348.269 6  39954775.070    39954780.012
 192326896.177 7 148719369.891 7  36934342.523    36934340.016
 196438058.663 7 151898429.419 6  37723864.484    37723860.570
 190120823.564 6 147013448.748 7  36510709.055    36510703.113
 191721053.359 7 148250844.346 7  36818015.070    36818008.629
 18  5 16  3  0 49.0000000  0 11C02C05C04C08C01C10C13C09C06C03C07
 195915092.092 6 151493938.699 7  37623440.164    37623435.301
 206767181.096 5 159885487.843 5  39707481.680    39707477.465
 197705089.446 6 152878085.116 6  37967189.250    37967184.711
 199415631.605 6 154200819.818 6  38295673.320    38295669.559
 191550939.840 6 148119280.886 7  36785348.781    36785340.320
 196311547.435 6 151800503.796 7  37699569.023    37699565.855
 208053505.733 6 160880197.931 6  39954488.844    39954494.613
 192328181.157 7 148720363.512 7  36934589.156    36934586.797
 196439627.066 7 151899642.209 6  37724165.711    37724161.828
 190120804.105 6 147013433.703 7  36510704.977    36510699.691
 191720924.236 7 148250744.499 7  36817989.781    36817984.195
 18  5 16  3  0 50.0000000  0 11C02C05C04C08C01C10C13C09C06C03C07
 195915083.610 6 151493932.128 7  37623438.695    37623433.395
 206767173.169 5 159885481.723 5  39707479.719    39707476.105
 197705079.690 6 152878077.577 6  37967187.461    37967182.520
 199413910.062 6 154199488.615 6  38295342.828    38295339.211
 191550921.032 6 148119266.344 7  36785345.758    36785336.797
 196311525.139 6 151800486.549 7  37699564.281    37699561.914
 208052017.936 6 160879047.470 6  39954203.531    39954208.680
 192329466.127 7 148721357.130 7  36934836.055    36934833.527
 196441195.435 7 151900854.967 6  37724466.773    37724462.977
 190120784.514 6 147013418.557 7  36510701.211    36510695.711
 191720794.873 7 148250644.473 7  36817965.148    36817959.195
 18  5 16  3  0 51.0000000  0 11C02C05C04C08C01C10C13C09C06C03C07
 195915075.389 6 151493925.777 7  37623437.297    37623431.793
 206767165.475 6 159885475.773 5  39707478.461    39707474.445
 197705070.188 6 152878070.221 6  37967185.227    37967181.031
 199412188.736 6 154198157.580 6  38295011.922    38295008.789
 191550902.522 6 148119252.034 7  36785342.258    36785333.613
 196311503.000 6 151800469.432 7  37699560.273    37699557.453
 208050530.301 6 160877897.138 6  39953917.883    39953923.098
 192330751.486 7 148722351.052 7  36935082.875    36935080.441
 196442764.038 7 151902067.910 6  37724767.883    37724764.168
 190120765.128 6 147013403.568 7  36510697.602    36510691.777
 191720665.664 7 148250544.561 7  36817940.305    36817934.406
 18  5 16  3  0 52.0000000  0 11C02C05C04C08C01C10C13C09C06C03C07
 195915067.034 6 151493919.311 7  37623435.500    37623430.000
 206767157.666 6 159885469.727 5  39707477.297    39707472.922
 197705060.552 6 152878062.763 6  37967183.445    37967179.531
 199410467.401 6 154196826.533 6  38294681.617    38294678.242
 191550883.876 6 148119237.612 7  36785338.453    36785330.004
 196311480.721 7 151800452.200 7  37699555.914    37699553.469
 208049042.564 6 160876746.724 6  39953631.961    39953637.273
 192332036.894 7 148723345.013 7  36935329.609    36935327.219
 196444332.616 6 151903280.829 6  37725069.219    37725065.555
 190120745.679 6 147013388.525 7  36510693.875    36510688.352
 191720536.279 7 148250444.507 7  36817915.797    36817909.629
 18  5 16  3  0 53.0000000  0 11C02C05C04C08C01C10C13C09C06C03C07
 195915058.625 6 151493912.804 7  37623433.750    37623428.773
 206767149.744 5 159885463.607 5  39707475.445    39707471.531
 197705050.824 6 152878055.244 6  37967181.820    37967177.172
 199408745.992 6 154195495.426 6  38294351.188    38294347.469
 191550865.128 6 148119223.111 7  36785334.883    36785326.129
 196311458.191 7 151800434.776 7  37699551.828    37699549.102
 208047554.679 6 160875596.194 6  39953346.656    39953351.758
 192333322.342 7 148724339.003 7  36935576.250    36935574.172
 196445901.174 6 151904493.736 6  37725370.070    37725366.633
 190120726.133 6 147013373.407 7  36510690.023    36510684.508
 191720406.713 7 148250344.321 7  36817891.055    36817884.445
 18  5 16  3  0 54.0000000  0 11C02C05C04C08C01C10C13C09C06C03C07
 195915050.268 6 151493906.352 7  37623432.047    37623426.695
 206767141.975 5 159885457.596 5  39707473.961    39707470.227
 197705041.201 6 152878047.809 6  37967180.180    37967175.613
 199407024.710 6 154194164.424 6  38294020.984    38294017.008
 191550846.487 6 148119208.693 7  36785331.453    36785322.910
 196311435.701 6 151800417.387 7  37699547.266    37699544.387
 208046066.862 6 160874445.720 6  39953060.789    39953065.875
 192334608.002 7 148725333.155 7  36935823.305    36935820.992
 196447469.876 6 151905706.751 6  37725672.141    37725668.055
 190120706.663 6 147013358.353 7  36510686.391    36510680.699
 191720277.145 7 148250244.128 7  36817865.633    36817859.750
 18  5 16  3  0 55.0000000  0 11C02C05C04C08C01C10C13C09C06C03C07
 195915042.350 6 151493900.227 7  37623430.492    37623425.176
 206767134.575 6 159885451.871 5  39707473.047    39707469.047
 197705032.045 6 152878040.722 6  37967178.148    37967173.566
 199405303.878 6 154192833.764 6  38293690.102    38293686.559
 191550828.295 6 148119194.626 7  36785327.703    36785318.977
 196311413.587 7 151800400.286 7  37699542.914    37699540.563
 208044579.428 6 160873295.545 6  39952775.234    39952780.145
 192335894.250 7 148726327.762 7  36936070.227    36936068.043
 196449039.020 7 151906920.114 6  37725972.461    37725969.129
 190120687.665 6 147013343.663 7  36510682.539    36510676.719
 191720147.952 7 148250144.227 7  36817841.320    36817834.961
 18  5 16  3  0 56.0000000  0 11C02C05C04C08C01C10C13C09C06C03C07
 195915034.064 6 151493893.823 7  37623428.609    37623423.848
 206767126.842 5 159885445.886 5  39707471.164    39707467.563
 197705022.478 6 152878033.327 6  37967176.266    37967171.863
 199403582.748 6 154191502.884 6  38293359.539    38293356.285
 191550809.714 6 148119180.258 7  36785324.016    36785315.559
 196311391.006 6 151800382.820 7  37699538.789    37699536.422
 208043091.600 6 160872145.060 6  39952489.734    39952494.438
 192337180.236 7 148727322.160 7  36936317.156    36936314.883
 196450607.870 6 151908133.246 6  37726274.828    37726270.125
 190120668.257 6 147013328.657 7  36510678.727    36510673.109
 191720018.268 7 148250043.948 7  36817815.969    36817810.207
 18  5 16  3  0 57.0000000  0 11C02C05C04C08C01C10C13C09C06C03C07
 195915025.633 6 151493887.301 7  37623427.398    37623422.047
 206767118.942 5 159885439.775 5  39707469.609    39707465.980
 197705012.758 6 152878025.813 6  37967174.445    37967169.992
 199401861.471 6 154190171.879 6  38293029.258    38293025.543
 191550790.962 6 148119165.756 7  36785320.508    36785311.785
 196311368.171 6 151800365.165 7  37699534.516    37699532.074
 208041603.585 6 160870994.434 6  39952203.875    39952208.684
 192338466.181 7 148728316.535 7  36936564.133    36936561.695
 196452176.599 7 151909346.287 6  37726575.461    37726571.730
 190120648.708 6 147013313.537 7  36510675.000    36510669.730
 191719888.329 7 148249943.471 7  36817791.313    36817785.551
 18  5 16  3  0 58.0000000  0 11C02C05C04C08C01C10C13C09C06C03C07
 195915017.224 6 151493880.795 7  37623426.008    37623420.473
 206767111.055 5 159885433.687 5  39707467.945    39707464.313
 197705003.097 6 152878018.340 6  37967172.313    37967168.266
 199400140.301 6 154188840.965 6  38292698.609    38292695.305
 191550772.255 6 148119151.291 7  36785316.906    36785308.688
 196311345.280 6 151800347.463 7  37699530.180    37699527.914
 208040115.557 6 160869843.798 6  39951917.938    39951922.746
 192339752.342 7 148729311.077 7  36936810.820    36936808.848
 196453745.436 7 151910559.413 6  37726877.242    37726872.879
 190120629.203 6 147013298.460 7  36510671.383    36510666.086
 191719758.359 7 148249842.969 7  36817766.305    36817760.609
 18  5 16  3  0 59.0000000  0 11C02C05C04C08C01C10C13C09C06C03C07
 195915008.805 6 151493874.288 7  37623424.789    37623418.848
 206767103.163 5 159885427.587 5  39707466.797    39707462.988
 197704993.376 6 152878010.826 6  37967170.688    37967166.195
 199398419.098 6 154187510.020 6  38292368.016    38292364.609
 191550753.549 6 148119136.834 7  36785312.977    36785304.871
 196311322.249 6 151800329.658 7  37699525.609    37699523.098
 208038627.412 6 160868693.073 6  39951632.344    39951637.031
 192341038.569 7 148730305.676 7  36937058.102    36937055.828
 196455314.292 7 151911772.545 6  37727178.156    37727174.090
 190120609.661 6 147013283.348 7  36510667.828    36510662.129
 191719628.269 7 148249742.374 7  36817741.375    36817735.512
 18  5 16  3  1  0.0000000  0 11C02C05C04C08C01C10C13C09C06C03C07
 195915000.276 6 151493867.685 7  37623422.875    37623417.219
 206767095.140 6 159885421.385 5  39707465.164    39707460.785
 197704983.623 6 152878003.284 6  37967169.133    37967164.484
 199396697.857 6 154186179.052 6  38292037.219    38292033.785
 191550734.746 6 148119122.290 7  36785309.820    36785301.477
 196311299.073 6 151800311.738 7  37699520.758    37699518.211
 208037139.200 6 160867542.295 6  39951345.945    39951351.273
 192342324.891 7 148731300.335 7  36937304.867    36937302.875
 196456883.133 7 151912985.668 6  37727479.430    37727475.281
 190120590.048 6 147013268.178 7  36510663.836    36510658.422
 191719498.036 7 148249641.671 7  36817716.203    36817710.379
 18  5 16  3  1  1.0000000  0 11C02C05C04C08C01C10C13C09C06C03C07
 195914991.789 6 151493861.124 7  37623421.227    37623415.664
 206767087.242 5 159885415.272 5  39707463.383    39707459.520
 197704973.871 6 152877995.741 6  37967167.031    37967162.559
 199394976.742 6 154184848.181 6  38291706.984    38291703.348
 191550716.010 6 148119107.803 7  36785306.086    36785297.613
 196311275.899 6 151800293.822 6  37699516.781    37699513.758
 208035650.981 6 160866391.507 6  39951060.648    39951065.809
 192343611.383 7 148732295.124 7  36937552.594    36937550.176
 196458452.061 7 151914198.866 6  37727781.344    37727776.828
 190120570.490 6 147013253.055 7  36510660.008    36510654.504
 191719367.743 7 148249540.917 7  36817691.195    36817685.516
 18  5 16  3  1  2.0000000  0 11C02C05C04C08C01C10C13C09C06C03C07
 195914983.425 6 151493854.658 7  37623419.430    37623413.813
 206767079.397 6 159885409.200 5  39707461.633    39707458.020
 197704964.270 6 152877988.313 6  37967164.984    37967160.547
 199393255.728 6 154183517.381 6  38291375.555    38291373.078
 191550697.374 6 148119093.392 7  36785302.867    36785294.102
 196311252.709 6 151800275.883 6  37699512.563    37699509.594
 208034162.836 6 160865240.776 6  39950775.000    39950779.844
 192344898.111 7 148733290.100 7  36937799.078    36937796.832
 196460021.151 7 151915412.180 6  37728082.258    37728078.398
 190120551.024 6 147013238.001 7  36510655.977    36510650.895
 191719237.453 7 148249440.172 7  36817665.992    36817660.332
 18  5 16  3  1  3.0000000  0 11C02C05C04C08C01C10C13C09C06C03C07
 195914974.893 6 151493848.065 7  37623417.227    37623412.328
 206767071.399 6 159885403.012 5  39707460.281    39707456.160
 197704954.486 6 152877980.744 6  37967163.500    37967158.543
 199391534.634 6 154182186.521 6  38291045.727    38291042.637
 191550678.580 6 148119078.862 7  36785299.156    36785290.738
 196311229.312 6 151800257.792 7  37699507.844    37699504.871
 208032674.500 6 160864089.896 6  39950488.828    39950493.973
 192346184.831 7 148734285.075 7  36938046.195    36938043.711
 196461590.150 7 151916625.424 6  37728382.898    37728379.730
 190120531.401 6 147013222.833 7  36510653.102    36510647.242
 191719106.928 7 148249339.246 7  36817641.258    36817635.098
 18  5 16  3  1  4.0000000  0 11C02C05C04C08C01C10C13C09C06C03C07
 195914966.516 6 151493841.581 7  37623416.031    37623410.777
 206767063.542 6 159885396.937 5  39707458.328    39707455.180
 197704944.872 6 152877973.313 6  37967161.680    37967156.605
 199389813.673 6 154180855.762 6  38290715.156    38290711.680
 191550659.961 6 148119064.460 7  36785295.563    36785287.293
 196311205.996 7 151800239.760 7  37699503.391    37699500.535
 208031186.306 6 160862939.131 6  39950203.234    39950208.594
 192347471.845 7 148735280.277 7  36938293.359    36938291.180
 196463159.326 7 151917838.812 6  37728684.633    37728681.227
 190120511.976 6 147013207.814 7  36510649.023    36510643.590
 191718976.501 7 148249238.391 7  36817616.102    36817610.195
 18  5 16  3  1  5.0000000  0 11C02C05C04C08C01C10C13C09C06C03C07
 195914958.273 6 151493835.205 7  37623413.984    37623409.117
 206767055.899 5 159885391.020 5  39707457.727    39707453.641
 197704935.421 6 152877966.006 6  37967159.789    37967155.094
 199388092.971 6 154179525.215 6  38290384.352    38290381.270
 191550641.502 6 148119050.187 7  36785291.906    36785283.633
 196311182.742 7 151800221.777 7  37699498.953    37699496.000
 208029698.210 6 160861788.440 6  39949917.734    39949922.613
 192348759.171 7 148736275.716 7  36938540.578    36938538.215
 196464728.734 7 151919052.371 6  37728986.094    37728982.352
 190120492.692 6 147013192.906 7  36510645.336    36510639.523
 191718846.115 7 148249137.557 7  36817590.875    36817585.238
 18  5 16  3  1  6.0000000  0 11C02C05C04C08C01C10C13C09C06C03C07
 195914950.067 6 151493828.862 7  37623411.969    37623407.242
 206767048.181 5 159885385.053 5  39707456.000    39707452.250
 197704925.934 6 152877958.672 6  37967157.406    37967153.227
 199386372.256 6 154178194.643 6  38290054.523    38290050.961
 191550623.014 6 148119035.886 7  36785288.508    36785280.102
 196311159.384 6 151800203.711 7  37699494.344    37699491.746
 208028210.053 6 160860637.705 6  39949631.617    39949637.031
 192350046.590 7 148737271.229 7  36938787.664    36938785.539
 196466298.176 7 151920265.966 6  37729287.641    37729283.859
 190120473.394 6 147013177.985 7  36510641.789    36510636.066
 191718715.650 7 148249036.674 7  36817565.984    36817560.023
 18  5 16  3  1  7.0000000  0 11C02C05C04C08C01C10C13C09C06C03C07
 195914941.523 6 151493822.258 7  37623410.297    37623405.727
 206767040.221 5 159885378.906 5  39707455.039    39707450.723
 197704916.183 6 152877951.122 6  37967155.828    37967151.043
 199384651.299 6 154176863.892 6  38289723.648    38289720.496
 191550604.280 6 148119021.402 7  36785285.023    36785276.547
 196311135.680 6 151800185.391 7  37699489.625    37699487.176
 208026721.626 6 160859486.763 6  39949346.047    39949351.078
 192351333.890 7 148738266.649 7  36939035.242    36939032.535
 196467867.399 6 151921479.381 6  37729588.609    37729585.422
 190120453.812 6 147013162.839 7  36510637.852    36510632.059
 191718584.822 7 148248935.508 7  36817541.102    36817535.012
 18  5 16  3  1  8.0000000  0 11C02C05C04C08C01C10C13C09C06C03C07
 195914933.240 6 151493815.855 7  37623409.813    37623404.211
 206767032.515 5 159885372.947 5  39707453.297    39707449.469
 197704906.612 6 152877943.728 6  37967154.148    37967149.535
 199382930.657 6 154175533.385 6  38289393.672    38289389.859
 191550585.772 6 148119007.090 7  36785281.320    36785272.625
 196311112.104 7 151800167.163 7  37699485.367    37699482.195
 208025233.328 6 160858335.918 6  39949060.320    39949065.539
 192352621.514 7 148739262.322 7  36939281.969    36939279.887
 196469436.867 6 151922692.995 6  37729890.492    37729886.512
 190120434.480 6 147013147.889 7  36510634.258    36510628.273
 191718454.082 7 148248834.416 7  36817516.242    36817509.613
 18  5 16  3  1  9.0000000  0 11C02C05C04C08C01C10C13C09C06C03C07
 195914924.709 6 151493809.256 7  37623407.398    37623402.793
 206767024.487 6 159885366.738 5  39707452.125    39707447.570
 197704896.858 6 152877936.191 6  37967152.352    37967147.430
 199381209.742 6 154174202.670 6  38289062.781    38289059.422
 191550567.013 6 148118992.588 7  36785277.969    36785269.082
 196311088.213 7 151800148.693 7  37699480.883    37699477.781
 208023744.810 6 160857184.906 6  39948774.055    39948779.625
 192353909.055 7 148740257.931 7  36939530.023    36939527.961
 196471006.161 7 151923906.474 6  37730191.500    37730188.105
 190120414.885 6 147013132.734 7  36510630.320    36510624.629
 191718323.057 7 148248733.099 7  36817490.828    36817484.379
 18  5 16  3  1 10.0000000  0 11C02C05C04C08C01C10C13C09C06C03C07
 195914915.974 5 151493802.498 7  37623406.656    37623401.055
 206767016.337 5 159885360.432 5  39707449.641    39707446.148
 197704886.938 6 152877928.523 6  37967150.664    37967145.926
 199379488.692 6 154172871.846 6  38288732.234    38288729.117
 191550548.058 6 148118977.927 7  36785274.141    36785265.414
 196311064.041 7 151800130.000 7  37699475.984    37699473.125
 208022256.017 6 160856033.673 6  39948488.648    39948493.684
 192355196.568 7 148741253.523 7  36939776.813    36939774.680
 196472575.337 7 151925119.859 6  37730493.242    37730489.223
 190120395.119 6 147013117.445 7  36510626.305    36510620.855
 191718191.758 7 148248631.568 7  36817465.766    36817459.297
 18  5 16  3  1 11.0000000  0 11C02C05C04C08C01C10C13C09C06C03C07
 195914907.539 6 151493795.971 7  37623404.648    37623399.082
 206767008.454 5 159885354.334 5  39707447.656    39707444.770
 197704877.266 6 152877921.043 6  37967148.648    37967144.109
 199377768.031 6 154171541.327 6  38288401.555    38288398.301
 191550529.401 6 148118963.499 7  36785270.008    36785261.906
 196311040.084 6 151800111.467 7  37699471.406    37699468.727
 208020767.499 6 160854882.659 6  39948202.063    39948207.766
 192356484.494 7 148742249.425 7  36940024.367    36940022.211
 196474144.856 7 151926333.501 6  37730794.000    37730790.492
 190120375.665 6 147013102.401 7  36510622.445    36510617.168
 191718060.662 7 148248530.192 7  36817440.078    36817434.426
 18  5 16  3  1 12.0000000  0 11C02C05C04C08C01C10C13C09C06C03C07
 195914899.261 6 151493789.564 7  37623402.688    37623397.598
 206767000.736 5 159885348.362 5  39707447.039    39707442.934
 197704867.775 6 152877913.697 6  37967146.727    37967141.934
 199376047.519 6 154170210.913 6  38288071.406    38288068.520
 191550510.898 6 148118949.193 7  36785266.813    36785258.082
 196311016.215 7 151800093.007 7  37699466.969    37699463.797
 208019279.139 6 160853731.759 6  39947916.367    39947922.133
 192357772.696 7 148743245.541 7  36940272.063    36940269.438
 196475714.570 7 151927547.300 6  37731095.484    37731091.746
 190120356.349 6 147013087.468 7  36510618.516    36510613.469
 191717929.649 7 148248428.886 7  36817415.219    36817409.168
 18  5 16  3  1 13.0000000  0 11C02C05C04C08C01C10C13C09C06C03C07
 195914890.644 6 151493782.899 7  37623401.625    37623396.047
 206766992.671 5 159885342.124 5  39707445.898    39707441.387
 197704857.944 6 152877906.094 6  37967144.555    37967140.137
 199374326.721 6 154168880.287 6  38287740.742    38287738.027
 191550492.074 6 148118934.633 7  36785263.352    36785255.012
 196310991.903 6 151800074.211 7  37699462.102    37699459.605
 208017790.320 6 160852580.502 6  39947630.484    39947636.074
 192359060.712 7 148744241.518 7  36940519.297    36940517.016
 196477284.015 7 151928760.899 6  37731397.063    37731393.266
 190120336.701 6 147013072.276 7  36510615.070    36510609.813
 191717798.207 7 148248327.246 7  36817389.672    36817383.594
 18  5 16  3  1 14.0000000  0 11C02C05C04C08C01C10C13C09C06C03C07
 195914882.227 6 151493776.389 7  37623399.961    37623394.148
 206766984.764 5 159885336.011 5  39707443.820    39707440.137
 197704848.267 6 152877898.615 6  37967142.844    37967138.082
 199372606.144 6 154167549.823 6  38287410.078    38287407.445
 191550473.450 6 148118920.232 7  36785259.781    36785251.074
 196310967.707 6 151800055.504 7  37699457.555    37699454.441
 208016301.743 6 160851429.439 6  39947344.383    39947350.008
 192360349.066 7 148745237.756 7  36940766.313    36940764.344
 196478853.662 6 151929974.646 6  37731698.156    37731694.324
 190120317.227 6 147013057.220 7  36510611.336    36510605.949
 191717666.854 7 148248225.676 7  36817364.555    36817358.785
 18  5 16  3  1 15.0000000  0 11C02C05C04C08C01C10C13C09C06C03C07
 195914873.925 6 151493769.973 7  37623398.320    37623392.742
 206766977.043 6 159885330.044 5  39707442.641    39707439.012
 197704838.773 6 152877891.267 6  37967140.602    37967136.145
 199370885.720 6 154166219.482 6  38287079.859    38287076.680
 191550454.910 6 148118905.896 7  36785256.008    36785247.559
 196310943.557 6 151800036.825 7  37699452.578    37699449.848
 208014813.160 6 160850278.379 6  39947058.680    39947064.488
 192361637.667 7 148746234.183 7  36941013.633    36941011.824
 196480423.504 7 151931188.545 6  37731999.984    37731996.641
 190120297.894 6 147013042.269 7  36510607.805    36510602.121
 191717535.558 7 148248124.153 7  36817339.305    36817333.551
 18  5 16  3  1 16.0000000  0 11C02C05C04C08C01C10C13C09C06C03C07
 195914865.459 6 151493763.428 7  37623396.688    37623391.352
 206766969.195 5 159885323.974 5  39707441.070    39707437.227
 197704829.160 6 152877883.828 6  37967138.938    37967134.695
 199369165.245 6 154164889.096 6  38286750.242    38286746.305
 191550436.327 6 148118891.529 7  36785252.266    36785243.859
 196310919.243 7 151800018.024 7  37699448.242    37699445.430
 208013324.532 6 160849127.278 6  39946773.023    39946778.469
 192362926.302 7 148747230.636 7  36941261.688    36941259.445
 196481993.349 7 151932402.451 6  37732301.586    37732297.770
 190120278.495 6 147013027.268 7  36510603.930    36510598.262
 191717404.074 7 148248022.484 7  36817314.211    36817308.199
 18  5 16  3  1 17.0000000  0 11C02C05C04C08C01C10C13C09C06C03C07
 195914857.066 6 151493756.943 7  37623394.438    37623389.492
 206766961.320 5 159885317.881 5  39707439.727    39707436.129
 197704819.492 6 152877876.361 6  37967136.914    37967133.059
 199367444.810 6 154163558.754 6  38286419.797    38286415.945
 191550417.710 6 148118877.132 7  36785248.891    36785240.316
 196310894.817 6 151799999.134 7  37699443.383    37699440.492
 208011835.824 6 160847976.121 6  39946487.391    39946492.672
 192364215.066 7 148748227.189 7  36941508.922    36941506.906
 196483563.197 7 151933616.357 6  37732602.422    37732599.289
 190120259.048 6 147013012.226 7  36510600.531    36510594.547
 191717272.482 7 148247920.727 7  36817289.352    36817282.609
 18  5 16  3  1 18.0000000  0 11C02C05C04C08C01C10C13C09C06C03C07
 195914848.554 6 151493750.364 7  37623393.156    37623387.852
 206766953.353 5 159885311.726 5  39707437.969    39707434.461
 197704809.796 6 152877868.864 6  37967135.430    37967131.090
 199365724.274 6 154162228.325 6  38286089.422    38286085.785
 191550398.982 6 148118862.646 7  36785245.563    36785237.070
 196310870.189 6 151799980.081 7  37699438.852    37699436.121
 208010346.982 6 160846824.859 6  39946201.617    39946206.320
 192365503.846 7 148749223.750 7  36941756.742    36941754.305
 196485132.980 6 151934830.213 6  37732904.539    37732900.438
 190120239.513 6 147012997.119 7  36510596.836    36510591.070
 191717140.696 7 148247818.819 7  36817263.688    36817257.664
 18  5 16  3  1 19.0000000  0 11C02C05C04C08C01C10C13C09C06C03C07
 195914840.088 6 151493743.819 7  37623391.523    37623386.492
 206766945.438 6 159885305.613 5  39707436.273    39707432.797
 197704800.151 6 152877861.409 6  37967134.055    37967129.391
 199364003.849 6 154160897.996 6  38285759.414    38285755.328
 191550380.326 6 148118848.223 7  36785241.742    36785232.797
 196310845.538 7 151799961.018 7  37699434.063    37699431.211
 208008858.133 6 160845673.587 6  39945915.164    39945920.773
 192366792.844 7 148750220.483 7  36942004.063    36942001.758
 196486702.897 6 151936044.168 6  37733205.828    37733202.047
 190120220.009 6 147012982.039 7  36510592.969    36510587.332
 191717008.879 7 148247716.885 7  36817238.227    36817232.387
 18  5 16  3  1 20.0000000  0 11C02C05C04C08C01C10C13C09C06C03C07
 195914831.721 6 151493737.344 7  37623390.094    37623384.926
 206766937.702 6 159885299.629 5  39707434.891    39707430.969
 197704790.586 6 152877854.004 6  37967132.109    37967127.566
 199362283.561 6 154159567.762 6  38285428.875    38285425.320
 191550361.767 6 148118833.869 7  36785238.734    36785229.766
 196310820.943 6 151799942.004 7  37699429.453    37699426.445
 208007369.401 6 160844522.405 6  39945629.414    39945634.859
 192368082.094 7 148751217.411 7  36942251.469    36942249.273
 196488272.974 6 151937258.250 6  37733507.273    37733503.738
 190120200.656 6 147012967.075 7  36510588.906    36510583.680
 191716877.117 7 148247615.000 7  36817212.922    36817206.773
 18  5 16  3  1 21.0000000  0 11C02C05C04C08C01C10C13C09C06C03C07
 195914823.139 6 151493730.709 7  37623388.547    37623383.281
 206766929.630 5 159885293.385 5  39707433.211    39707429.426
 197704780.804 6 152877846.437 6  37967129.906    37967125.602
 199360563.119 6 154158237.411 6  38285098.203    38285094.820
 191550342.999 6 148118819.358 7  36785235.023    36785226.172
 196310796.045 7 151799922.747 7  37699424.516    37699421.637
 208005880.379 6 160843371.000 6  39945343.492    39945348.699
 192369371.227 7 148752214.255 7  36942499.266    36942496.793
 196489842.857 7 151938472.177 6  37733809.078    37733804.813
 190120181.080 6 147012951.937 7  36510585.602    36510579.484
 191716745.007 7 148247512.842 7  36817187.961    36817181.480
 18  5 16  3  1 22.0000000  0 11C02C05C04C08C01C10C13C09C06C03C07
 195914814.775 6 151493724.244 7  37623386.625    37623381.828
 206766921.833 6 159885287.352 5  39707431.477    39707427.828
 197704771.234 6 152877839.034 6  37967128.016    37967123.563
 199358842.908 6 154156907.231 6  38284768.000    38284764.297
 191550324.478 6 148118805.038 7  36785230.953    36785222.605
 196310771.246 6 151799903.573 7  37699419.828    37699416.676
 208004391.563 6 160842219.747 6  39945057.047    39945062.746
 192370660.731 7 148753211.377 7  36942746.641    36942744.605
 196491413.021 6 151939686.327 6  37734110.422    37734106.559
 190120161.715 6 147012936.964 7  36510582.242    36510576.008
 191716613.065 7 148247410.817 7  36817162.523    36817156.273
 18  5 16  3  1 23.0000000  0 11C02C05C04C08C01C10C13C09C06C03C07
 195914806.233 6 151493717.636 7  37623385.102    37623380.547
 206766913.865 5 159885281.183 5  39707430.445    39707426.074
 197704761.530 6 152877831.539 6  37967126.164    37967121.695
 199357122.572 6 154155576.959 6  38284437.344    38284433.590
 191550305.781 6 148118790.577 7  36785227.383    36785219.012
 196310746.214 6 151799884.221 7  37699415.070    37699411.965
 208002902.517 6 160841068.329 6  39944771.656    39944776.934
 192371950.209 7 148754208.484 7  36942994.305    36942992.133
 196492983.083 7 151940900.397 6  37734412.078    37734408.008
 190120142.188 6 147012921.859 7  36510577.992    36510572.395
 191716480.841 7 148247308.571 7  36817136.500    36817130.984
 18  5 16  3  1 24.0000000  0 11C02C05C04C08C01C10C13C09C06C03C07
 195914797.723 6 151493711.055 7  37623383.578    37623378.137
 206766905.925 5 159885275.045 5  39707428.164    39707424.707
 197704751.781 6 152877824.003 6  37967124.227    37967119.648
 199355402.318 6 154154246.751 6  38284106.773    38284103.512
 191550287.096 6 148118776.131 7  36785224.102    36785215.410
 196310721.127 6 151799864.818 7  37699410.328    37699407.195
 208001413.465 6 160839916.897 6  39944485.734    39944490.625
 192373239.821 7 148755205.696 7  36943242.180    36943239.770
 196494553.175 7 151942114.490 6  37734713.844    37734709.605
 190120122.688 6 147012906.784 7  36510574.109    36510568.547
 191716348.563 7 148247206.286 7  36817111.703    36817105.129
 18  5 16  3  1 25.0000000  0 11C02C05C04C08C01C10C13C09C06C03C07
 195914789.165 6 151493704.432 7  37623382.414    37623376.934
 206766897.908 5 159885268.844 5  39707427.391    39707423.223
 197704742.076 6 152877816.494 6  37967122.875    37967118.078
 199353682.020 6 154152916.510 6  38283776.133    38283773.266
 191550268.356 6 148118761.643 7  36785220.570    36785211.785
 196310695.930 7 151799845.335 7  37699405.578    37699402.402
 207999924.318 6 160838765.388 6  39944199.672    39944204.992
 192374529.542 7 148756202.989 7  36943489.492    36943487.621
 196496123.329 7 151943328.632 6  37735014.617    37735011.172
 190120103.107 6 147012891.641 7  36510570.180    36510564.859
 191716216.145 7 148247103.891 7  36817086.156    36817079.988
 18  5 16  3  1 26.0000000  0 11C02C05C04C08C01C10C13C09C06C03C07
 195914780.720 6 151493697.905 7  37623380.734    37623374.875
 206766890.051 5 159885262.771 5  39707425.633    39707421.418
 197704732.447 6 152877809.050 6  37967120.711    37967116.242
 199351961.944 6 154151586.431 6  38283445.992    38283443.082
 191550249.755 6 148118747.256 7  36785216.719    36785208.336
 196310670.788 6 151799825.896 7  37699400.750    37699397.527
 207998435.300 6 160837613.982 6  39943914.008    39943918.945
 192375819.541 7 148757200.494 7  36943737.680    36943735.070
 196497693.654 7 151944542.906 6  37735316.633    37735312.418
 190120083.720 6 147012876.646 7  36510566.445    36510561.344
 191716083.812 7 148247001.564 7  36817060.781    36817054.410
 18  5 16  3  1 27.0000000  0 11C02C05C04C08C01C10C13C09C06C03C07
 195914772.179 6 151493691.300 7  37623378.758    37623373.129
 206766882.054 5 159885256.583 5  39707424.297    39707420.176
 197704722.728 6 152877801.529 6  37967119.039    37967114.285
 199350241.766 6 154150256.282 6  38283116.133    38283112.754
 191550231.083 6 148118732.816 7  36785213.164    36785204.359
 196310645.431 7 151799806.290 7  37699395.633    37699392.535
 207996946.094 6 160836462.434 6  39943627.586    39943632.617
 192377109.583 7 148758198.039 7  36943985.195    36943983.063
 196499263.907 6 151945757.118 6  37735618.547    37735614.410
 190120064.216 6 147012861.566 7  36510562.930    36510557.473
 191715951.248 7 148246899.058 7  36817035.336    36817029.496
 18  5 16  3  1 28.0000000  0 11C02C05C04C08C01C10C13C09C06C03C07
 195914763.526 6 151493684.602 7  37623377.031    37623371.871
 206766874.017 5 159885250.375 5  39707421.961    39707418.648
 197704712.912 6 152877793.937 6  37967117.320    37967112.586
 199348521.527 6 154148926.084 6  38282786.133    38282782.188
 191550212.332 6 148118718.315 7  36785209.445    36785200.992
 196310619.893 7 151799786.538 7  37699391.078    37699388.094
 207995456.807 6 160835310.832 6  39943341.680    39943347.395
 192378399.653 7 148759195.603 7  36944232.867    36944230.711
 196500834.167 6 151946971.339 6  37735919.672    37735915.875
 190120044.617 6 147012846.412 7  36510559.109    36510553.883
 191715818.517 7 148246796.424 7  36817010.352    36817003.949
 18  5 16  3  1 29.0000000  0 11C02C05C04C08C01C10C13C09C06C03C07
 195914754.851 6 151493677.898 7  37623375.531    37623370.207
 206766865.862 5 159885244.067 5  39707420.688    39707417.344
 197704703.053 6 152877786.317 6  37967115.148    37967110.262
 199346801.244 6 154147595.851 6  38282455.922    38282452.125
 191550193.445 6 148118703.714 7  36785205.805    36785197.664
 196310594.195 6 151799766.669 7  37699385.805    37699383.059
 207993967.366 6 160834159.102 6  39943055.727    39943061.301
 192379689.770 7 148760193.202 7  36944480.750    36944478.355
 196502404.346 6 151948185.497 6  37736220.836    37736217.387
 190120024.926 6 147012831.188 7  36510555.766    36510549.984
 191715685.637 7 148246693.662 7  36816984.047    36816978.395
 18  5 16  3  1 30.0000000  0 11C02C05C04C08C01C10C13C09C06C03C07
 195914746.420 6 151493671.377 7  37623373.648    37623368.082
 206766858.063 5 159885238.040 5  39707419.492    39707415.938
 197704693.446 6 152877778.887 6  37967113.391    37967108.844
 199345081.332 6 154146265.906 6  38282125.531    38282121.805
 191550174.924 6 148118689.389 7  36785202.367    36785193.887
 196310568.716 7 151799746.973 7  37699380.852    37699378.199
 207992478.196 6 160833007.580 6  39942769.531    39942775.160
 192380980.307 7 148761191.123 7  36944728.578    36944726.180
 196503974.896 6 151949399.947 6  37736522.469    37736518.887
 190120005.564 6 147012816.215 7  36510551.609    36510546.016
 191715552.938 7 148246591.048 7  36816958.820    36816952.930
 18  5 16  3  1 31.0000000  0 11C02C05C04C08C01C10C13C09C06C03C07
 195914737.964 5 151493664.846 7  37623372.055    37623366.730
 206766850.142 5 159885231.911 5  39707417.820    39707414.520
 197704683.820 6 152877771.447 6  37967111.594    37967106.980
 199343361.417 6 154144935.957 6  38281794.625    38281791.098
 191550156.315 6 148118675.000 7  36785198.727    36785190.285
 196310543.102 7 151799727.160 7  37699376.305    37699373.367
 207990988.947 6 160831855.998 6  39942483.438    39942489.355
 192382270.972 7 148762189.147 7  36944976.391    36944974.598
 196505545.458 6 151950614.403 6  37736824.336    37736820.551
 190119986.147 6 147012801.198 7  36510548.398    36510542.344
 191715420.129 7 148246488.353 7  36816933.164    36816926.863
 18  5 16  3  1 32.0000000  0 11C02C05C04C08C01C10C13C09C06C03C07
 195914729.935 5 151493658.628 7  37623370.867    37623365.352
 206766842.619 5 159885226.087 5  39707416.141    39707412.926
 197704674.591 6 152877764.306 6  37967109.383    37967104.809
 199341641.892 6 154143606.315 6  38281464.273    38281460.895
 191550138.116 6 148118660.930 7  36785195.977    36785186.730
 196310517.832 7 151799707.619 7  37699371.516    37699368.098
 207989500.065 6 160830704.699 6  39942197.625    39942203.418
 192383562.146 7 148763187.567 7  36945224.031    36945222.250
 196507116.444 6 151951829.187 6  37737126.391    37737122.645
 190119967.121 6 147012786.486 7  36510544.453    36510538.742
 191715287.603 7 148246385.881 7  36816907.906    36816901.852
 18  5 16  3  1 33.0000000  0 11C02C05C04C08C01C10C13C09C06C03C07
 195914721.500 6 151493652.103 7  37623368.898    37623363.848
 206766834.746 6 159885220.007 6  39707414.281    39707411.207
 197704664.995 6 152877756.887 6  37967107.570    37967103.215
 199339922.081 6 154142276.448 6  38281134.383    38281130.555
 191550119.563 6 148118646.583 7  36785191.789    36785183.031
 196310492.110 7 151799687.720 7  37699366.203    37699363.367
 207988010.759 6 160829553.079 6  39941911.516    39941917.387
 192384853.086 7 148764185.805 7  36945472.133    36945469.676
 196508687.126 6 151953043.740 6  37737428.406    37737424.148
 190119947.730 6 147012771.494 7  36510540.766    36510535.242
 191715154.679 7 148246283.093 7  36816881.875    36816876.160
 18  5 16  3  1 34.0000000  0 11C02C05C04C08C01C10C13C09C06C03C07
 195914712.912 6 151493645.465 7  37623367.094    37623362.090
 206766826.755 5 159885213.823 5  39707412.875    39707409.637
 197704655.237 6 152877749.339 6  37967105.945    37967101.238
 199338202.101 6 154140946.450 6  38280803.641    38280800.180
 191550100.853 6 148118632.116 7  36785188.445    36785179.574
 196310466.107 6 151799667.614 7  37699361.438    37699358.504
 207986521.320 6 160828401.350 6  39941624.859    39941630.926
 192386144.033 7 148765184.054 7  36945719.758    36945717.918
 196510257.727 6 151954258.222 6  37737729.547    37737725.711
 190119928.220 6 147012756.407 7  36510536.734    36510531.102
 191715021.453 7 148246180.074 7  36816856.688    36816850.422
 18  5 16  3  1 35.0000000  0 11C02C05C04C08C01C10C13C09C06C03C07
 195914704.498 6 151493638.962 7  37623365.570    37623360.504
 206766818.945 5 159885207.782 5  39707411.086    39707408.102
 197704645.682 6 152877741.951 6  37967104.102    37967099.102
 199336482.377 6 154139616.657 6  38280473.664    38280469.922
 191550082.321 6 148118617.783 7  36785184.438    36785176.258
 196310440.280 6 151799647.647 7  37699356.539    37699353.398
 207985031.980 6 160827249.697 6  39941339.219    39941345.309
 192387435.294 7 148766182.538 7  36945968.258    36945966.141
 196511828.532 6 151955472.863 6  37738030.898    37738027.473
 190119908.861 6 147012741.440 7  36510532.875    36510527.414
 191714888.376 7 148246077.170 7  36816830.984    36816825.188
 18  5 16  3  1 36.0000000  0 11C02C05C04C08C01C10C13C09C06C03C07
 195914695.860 6 151493632.283 7  37623363.945    37623358.781
 206766810.881 5 159885201.545 5  39707409.898    39707406.953
 197704635.868 6 152877734.355 6  37967101.844    37967097.324
 199334762.490 6 154138286.725 6  38280143.781    38280139.977
 191550063.602 6 148118603.310 7  36785181.023    36785172.250
 196310414.056 6 151799627.363 7  37699350.922    37699348.426
 207983542.389 6 160826097.854 6  39941053.656    39941059.379
 192388726.464 7 148767180.947 7  36946216.031    36946213.879
 196513399.150 6 151956687.366 6  37738332.609    37738329.344
 190119889.263 6 147012726.283 7  36510528.898    36510523.457
 191714754.976 7 148245974.011 7  36816805.539    36816799.586
 18  5 16  3  1 37.0000000  0 11C02C05C04C08C01C10C13C09C06C03C07
 195914687.359 6 151493625.707 7  37623362.188    37623357.480
 206766802.914 6 159885195.383 5  39707408.523    39707405.320
 197704626.197 6 152877726.877 6  37967100.320    37967095.703
 199333042.724 6 154136956.889 6  38279812.813    38279809.406
 191550044.993 6 148118588.918 7  36785177.734    36785168.969
 196310387.935 6 151799607.167 7  37699345.820    37699343.250
 207982052.878 6 160824946.067 6  39940767.227    39940773.066
 192390017.884 7 148768179.552 7  36946464.070    36946461.645
 196514969.951 6 151957902.008 6  37738634.180    37738630.844
 190119869.836 6 147012711.258 7  36510525.391    36510519.883
 191714621.605 7 148245870.878 7  36816779.922    36816774.066
 18  5 16  3  1 38.0000000  0 11C02C05C04C08C01C10C13C09C06C03C07
 195914678.899 6 151493619.167 7  37623360.875    37623355.598
 206766795.041 5 159885189.295 5  39707406.938    39707403.836
 197704616.641 6 152877719.487 6  37967098.453    37967094.023
 199331323.079 6 154135627.153 6  38279482.758    38279479.309
 191550026.427 6 148118574.561 7  36785173.891    36785165.207
 196310361.780 6 151799586.947 7  37699340.758    37699338.484
 207980563.370 6 160823794.284 6  39940481.484    39940487.082
 192391309.497 7 148769178.309 7  36946712.359    36946709.980
 196516540.886 6 151959116.751 6  37738936.398    37738932.387
 190119850.430 6 147012696.252 7  36510521.609    36510516.523
 191714488.176 7 148245767.702 7  36816754.203    36816748.246
 18  5 16  3  1 39.0000000  0 11C02C05C04C08C01C10C13C09C06C03C07
 195914670.244 6 151493612.475 7  37623359.148    37623353.746
 206766786.960 6 159885183.051 5  39707405.500    39707402.172
 197704606.802 6 152877711.879 6  37967096.438    37967091.906
 199329603.264 6 154134297.282 6  38279152.805    38279148.793
 191550007.625 6 148118560.026 7  36785170.008    36785161.629
 196310335.349 6 151799566.509 7  37699336.289    37699333.355
 207979073.649 6 160822642.339 6  39940194.914    39940201.047
 192392601.031 7 148770177.002 7  36946960.133    36946957.965
 196518111.654 6 151960331.369 6  37739237.859    37739234.055
 190119830.847 6 147012681.106 7  36510517.820    36510512.723
 191714354.491 7 148245664.331 7  36816728.430    36816722.605
 18  5 16  3  1 40.0000000  0 11C02C05C04C08C01C10C13C09C06C03C07
 195914661.785 6 151493605.930 7  37623357.016    37623352.168
 206766779.071 5 159885176.946 5  39707404.586    39707401.145
 197704597.211 6 152877704.469 6  37967094.781    37967090.230
 199327883.726 6 154132967.633 6  38278822.430    38278818.809
 191549989.096 6 148118545.695 7  36785166.664    36785158.457
 196310309.037 7 151799546.157 7  37699330.844    37699328.059
 207977584.124 6 160821490.545 6  39939908.992    39939915.141
 192393892.945 7 148771175.986 7  36947208.820    36947205.883
 196519682.720 6 151961546.213 6  37739539.641    37739535.906
 190119811.476 6 147012666.129 7  36510514.133    36510508.906
 191714220.917 7 148245561.048 7  36816702.797    36816696.785
 18  5 16  3  1 41.0000000  0 11C02C05C04C08C01C10C13C09C06C03C07
 195914653.219 6 151493599.308 7  37623355.602    37623350.520
 206766771.069 5 159885170.750 5  39707402.500    39707399.625
 197704587.504 6 152877696.962 6  37967092.836    37967088.316
 199326164.089 6 154131637.907 6  38278491.734    38278488.504
 191549970.424 6 148118531.258 7  36785162.992    36785154.840
 196310282.513 7 151799525.648 7  37699326.133    37699323.035
 207976094.410 6 160820338.608 6  39939623.180    39939629.000
 192395184.850 7 148772174.974 7  36947456.805    36947454.160
 196521253.690 7 151962760.988 6  37739840.938    37739837.020
 190119791.998 6 147012651.071 7  36510510.516    36510505.043
 191714087.148 7 148245457.605 7  36816676.930    36816670.945
 18  5 16  3  1 42.0000000  0 11C02C05C04C08C01C10C13C09C06C03C07
 195914644.800 6 151493592.797 7  37623354.406    37623348.871
 206766763.235 5 159885164.696 6  39707400.992    39707398.434
 197704577.954 6 152877689.579 6  37967091.188    37967086.609
 199324444.584 6 154130308.283 6  38278162.070    38278158.297
 191549951.925 6 148118516.952 7  36785159.492    36785151.023
 196310256.050 7 151799505.181 7  37699321.023    37699318.012
 207974604.838 6 160819186.783 6  39939337.070    39939343.027
 192396477.038 7 148773174.166 7  36947704.609    36947702.488
 196522824.857 6 151963975.910 6  37740143.055    37740139.262
 190119772.647 6 147012636.107 7  36510506.891    36510501.641
 191713953.454 7 148245354.227 7  36816651.656    36816645.500
 18  5 16  3  1 43.0000000  0 11C02C05C04C08C01C10C13C09C06C03C07
 195914636.328 6 151493586.250 7  37623352.539    37623347.203
 206766755.344 5 159885158.598 5  39707399.063    39707396.523
 197704568.318 6 152877682.123 6  37967089.492    37967084.895
 199322725.093 6 154128978.662 6  38277831.578    38277828.258
 191549933.388 6 148118502.619 7  36785156.031    36785147.445
 196310229.480 7 151799484.635 7  37699315.781    37699312.809
 207973115.140 6 160818034.854 6  39939051.414    39939056.617
 192397769.348 7 148774173.463 7  36947953.094    36947950.477
 196524396.043 6 151965190.851 6  37740444.555    37740440.762
 190119753.292 6 147012621.137 7  36510502.961    36510497.781
 191713819.597 7 148245250.712 7  36816625.883    36816619.887
 18  5 16  3  1 44.0000000  0 11C02C05C04C08C01C10C13C09C06C03C07
 195914627.800 6 151493579.654 7  37623351.352    37623345.676
 206766747.418 5 159885152.468 5  39707397.805    39707394.879
 197704558.658 6 152877674.654 6  37967087.141    37967083.051
 199321005.643 6 154127649.072 6  38277501.344    38277497.918
 191549914.779 6 148118488.230 7  36785152.703    36785143.992
 196310202.758 6 151799463.973 7  37699310.805    37699308.020
 207971625.392 6 160816882.888 6  39938764.875    39938770.555
 192399061.742 7 148775172.822 7  36948200.695    36948198.426
 196525967.210 7 151966405.769 6  37740746.320    37740742.457
 190119733.852 6 147012606.102 7  36510499.391    36510493.895
 191713685.646 7 148245147.131 7  36816600.484    36816594.027
 18  5 16  3  1 45.0000000  0 11C02C05C04C08C01C10C13C09C06C03C07
 195914619.485 6 151493573.220 7  37623350.305    37623344.164
 206766739.645 5 159885146.458 5  39707397.156    39707393.215
 197704549.196 6 152877667.335 6  37967085.234    37967081.074
 199319286.383 6 154126319.625 6  38277171.250    38277167.766
 191549896.399 6 148118474.013 7  36785148.734    36785140.125
 196310176.174 6 151799443.420 7  37699305.617    37699302.930
 207970135.846 6 160815731.081 6  39938478.539    39938484.504
 192400354.440 7 148776172.423 7  36948448.945    36948447.098
 196527538.636 7 151967620.898 6  37741048.328    37741044.461
 190119714.627 6 147012591.236 7  36510496.219    36510490.242
 191713551.765 7 148245043.608 7  36816574.578    36816567.965
 18  5 16  3  1 46.0000000  0 11C02C05C04C08C01C10C13C09C06C03C07
 195914610.871 6 151493566.555 7  37623348.109    37623342.680
 206766731.578 6 159885140.220 5  39707395.313    39707391.711
 197704539.457 6 152877659.806 6  37967083.484    37967079.277
 199317566.914 6 154124990.034 6  38276841.156    38276837.559
 191549877.698 6 148118459.552 7  36785145.180    36785137.051
 196310149.187 7 151799422.553 7  37699300.664    37699297.527
 207968645.887 6 160814578.950 6  39938192.422    39938198.227
 192401646.977 7 148777171.896 7  36948697.039    36948695.258
 196529109.814 7 151968835.830 6  37741350.320    37741346.570
 190119695.106 6 147012576.143 7  36510491.805    36510486.430
 191713417.509 7 148244939.791 7  36816549.008    36816542.457
 18  5 16  3  1 47.0000000  0 11C02C05C04C08C01C10C13C09C06C03C07
 195914602.399 6 151493560.003 7  37623346.219    37623340.914
 206766723.760 5 159885134.174 5  39707393.016    39707390.031
 197704529.897 6 152877652.412 6  37967081.664    37967077.277
 199315847.639 6 154123660.579 6  38276510.586    38276507.348
 191549859.199 6 148118445.247 7  36785141.930    36785133.199
 196310122.312 6 151799401.772 7  37699295.000    37699292.441
 207967156.083 6 160813426.940 6  39937906.227    39937912.309
 192402939.819 7 148778171.600 7  36948945.797    36948943.523
 196530681.238 7 151970050.951 6  37741651.539    37741648.191
 190119675.771 6 147012561.196 7  36510488.039    36510482.691
 191713283.368 7 148244836.070 7  36816523.156    36816516.793
 18  5 16  3  1 48.0000000  0 11C02C05C04C08C01C10C13C09C06C03C07
 195914593.829 6 151493553.383 7  37623344.547    37623339.184
 206766715.731 5 159885127.960 5  39707392.180    39707388.395
 197704520.180 6 152877644.897 6  37967079.719    37967075.262
 199314128.250 6 154122331.032 6  38276180.313    38276177.242
 191549840.569 6 148118430.840 7  36785138.133    36785129.629
 196310095.205 7 151799380.809 7  37699290.078    37699287.492
 207965666.134 6 160812274.811 6  39937620.211    39937626.277
 192404232.702 7 148779171.337 7  36949193.789    36949191.746
 196532252.550 7 151971265.988 6  37741953.367    37741949.617
 190119656.296 6 147012546.140 7  36510484.445    36510478.988
 191713148.997 7 148244732.162 7  36816497.297    36816491.016
 18  5 16  3  1 49.0000000  0 11C02C05C04C08C01C10C13C09C06C03C07
 195914585.176 6 151493546.688 7  37623342.984    37623337.426
 206766707.683 5 159885121.736 5  39707390.750    39707387.129
 197704510.417 6 152877637.354 6  37967077.688    37967073.367
 199312408.885 6 154121001.516 6  38275850.820    38275847.039
 191549821.853 6 148118416.368 7  36785134.016    36785125.813
 196310067.979 6 151799359.757 7  37699284.828    37699281.965
 207964176.136 6 160811122.644 6  39937334.352    39937340.164
 192405525.632 7 148780171.114 7  36949442.000    36949440.090
 196533823.885 7 151972481.041 6  37742255.125    37742251.465
 190119636.755 6 147012531.030 7  36510480.688    36510475.098
 191713014.480 7 148244628.145 7  36816471.672    36816465.172
 18  5 16  3  1 50.0000000  0 11C02C05C04C08C01C10C13C09C06C03C07
 195914576.434 6 151493539.932 7  37623340.930    37623335.730
 206766699.529 5 159885115.427 6  39707389.406    39707385.336
 197704500.550 6 152877629.726 6  37967076.063    37967071.602
 199310689.390 6 154119671.893 6  38275520.867    38275516.961
 191549803.040 6 148118401.816 7  36785130.383    36785122.305
 196310040.541 6 151799338.538 7  37699279.070    37699276.684
 207962685.897 6 160809970.301 6  39937048.031    39937054.016
 192406818.603 7 148781170.923 7  36949690.695    36949688.340
 196535395.148 7 151973696.038 6  37742556.852    37742553.230
 190119617.142 6 147012515.863 7  36510477.203    36510471.484
 191712879.780 7 148244523.983 7  36816445.516    36816439.250
 18  5 16  3  1 51.0000000  0 11C02C05C04C08C01C10C13C09C06C03C07
 195914568.261 6 151493533.609 7  37623339.617    37623334.188
 206766691.921 5 159885109.551 6  39707387.648    39707383.844
 197704491.296 6 152877622.568 6  37967074.141    37967069.949
 199308970.532 6 154118342.771 6  38275190.672    38275187.148
 191549784.801 6 148118387.715 7  36785127.359    36785119.184
 196310013.614 6 151799317.716 7  37699274.500    37699271.715
 207961196.264 6 160808818.427 6  39936761.867    39936767.930
 192408112.302 7 148782171.287 7  36949939.039    36949936.586
 196536967.037 7 151974911.522 6  37742858.836    37742855.398
 190119598.079 6 147012501.117 7  36510473.406    36510467.938
 191712745.540 7 148244420.176 7  36816419.883    36816413.375
 18  5 16  3  1 52.0000000  0 11C02C05C04C08C01C10C13C09C06C03C07
 195914559.644 6 151493526.947 7  37623338.063    37623332.813
 206766683.891 5 159885103.346 5  39707386.406    39707382.043
 197704481.547 6 152877615.027 6  37967073.109    37967068.137
 199307251.299 6 154117013.355 6  38274859.883    38274856.332
 191549766.170 6 148118373.311 7  36785123.719    36785115.238
 196309986.155 6 151799296.481 7  37699269.156    37699266.199
 207959706.186 6 160807666.207 6  39936475.836    39936481.656
 192409405.680 7 148783171.407 7  36950187.648    36950185.523
 196538538.564 7 151976126.721 6  37743160.695    37743157.004
 190119578.595 6 147012486.051 7  36510469.711    36510464.098
 191712610.822 7 148244316.006 7  36816393.641    36816387.336
 18  5 16  3  1 53.0000000  0 11C02C05C04C08C01C10C13C09C06C03C07
 195914551.037 6 151493520.293 7  37623335.797    37623330.910
 206766675.931 5 159885097.185 5  39707385.227    39707381.137
 197704471.867 6 152877607.539 7  37967070.781    37967065.926
 199305532.135 6 154115683.985 6  38274530.070    38274526.535
 191549747.535 6 148118358.895 7  36785120.477    36785111.574
 196309958.653 6 151799275.216 7  37699264.000    37699260.836
 207958216.036 6 160806513.928 6  39936189.609    39936195.500
 192410699.245 7 148784171.672 7  36950435.977    36950433.605
 196540110.157 7 151977341.977 6  37743462.547    37743458.598
 190119559.145 6 147012471.012 7  36510465.977    36510460.500
 191712476.012 7 148244211.762 7  36816367.984    36816361.441
 18  5 16  3  1 54.0000000  0 11C02C05C04C08C01C10C13C09C06C03C07
 195914542.533 6 151493513.713 7  37623334.844    37623329.391
 206766667.992 5 159885091.048 5  39707382.500    39707379.180
 197704462.254 6 152877600.108 6  37967068.578    37967064.145
 199303813.075 6 154114354.694 6  38274200.094    38274196.184
 191549728.984 6 148118344.552 7  36785116.930    36785108.355
 196309931.099 6 151799253.913 7  37699258.469    37699255.570
 207956725.919 6 160805361.670 6  39935903.836    39935909.191
 192411992.969 7 148785172.067 7  36950684.617    36950682.016
 196541681.865 7 151978557.315 6  37743764.641    37743760.648
 190119539.738 6 147012456.003 7  36510462.484    36510456.602
 191712341.203 7 148244107.521 7  36816342.445    36816335.723
 18  5 16  3  1 55.0000000  0 11C02C05C04C08C01C10C13C09C06C03C07
 195914534.141 6 151493507.226 7  37623333.047    37623327.863
 206766660.195 5 159885085.016 5  39707381.617    39707377.879
 197704452.757 6 152877592.757 6  37967066.891    37967062.391
 199302094.154 6 154113025.512 6  38273869.680    38273866.785
 191549710.579 6 148118330.317 7  36785113.125    36785104.484
 196309903.655 6 151799232.690 7  37699253.148    37699250.586
 207955235.950 6 160804209.526 6  39935617.336    39935623.344
 192413287.007 7 148786172.693 7  36950932.625    36950930.398
 196543253.770 7 151979772.813 6  37744066.414    37744062.191
 190119520.511 6 147012441.135 7  36510458.625    36510453.016
 191712206.439 7 148244003.313 7  36816316.453    36816309.867
 18  5 16  3  1 56.0000000  0 11C02C05C04C08C01C10C13C09C06C03C07
 195914525.815 6 151493500.781 7  37623331.438    37623326.414
 206766652.458 6 159885079.027 5  39707380.234    39707376.117
 197704443.322 6 152877585.456 6  37967064.344    37967060.574
 199300375.360 6 154111696.432 6  38273539.781    38273536.266
 191549692.205 6 148118316.113 7  36785109.727    36785100.918
 196309876.181 7 151799211.447 7  37699247.766    37699245.238
 207953746.013 6 160803057.410 6  39935331.453    39935336.801
 192414581.217 7 148787173.458 7  36951181.172    36951178.867
 196544825.766 6 151980988.382 6  37744368.195    37744364.262
 190119501.331 6 147012426.305 7  36510454.750    36510449.324
 191712071.648 7 148243899.085 7  36816290.516    36816284.031
 18  5 16  3  1 57.0000000  0 11C02C05C04C08C01C10C13C09C06C03C07
 195914517.236 6 151493494.149 7  37623329.844    37623324.430
 206766644.496 5 159885072.877 5  39707378.742    39707375.109
 197704433.611 6 152877577.944 6  37967063.273    37967058.551
 199298656.344 6 154110367.179 6  38273209.438    38273206.289
 191549673.602 6 148118301.729 7  36785106.070    36785097.461
 196309848.348 7 151799189.927 7  37699242.461    37699239.957
 207952255.715 6 160801905.019 6  39935045.352    39935050.934
 192415875.321 7 148788174.142 7  36951430.023    36951427.625
 196546397.561 6 151982203.787 6  37744669.430    37744665.895
 190119481.874 6 147012411.260 7  36510451.133    36510445.480
 191711936.522 7 148243794.593 7  36816264.313    36816258.188
 18  5 16  3  1 58.0000000  0 11C02C05C04C08C01C10C13C09C06C03C07
 195914508.578 6 151493487.448 7  37623327.813    37623322.766
 206766636.422 5 159885066.632 5  39707377.148    39707373.219
 197704423.902 6 152877570.446 7  37967061.711    37967056.645
 199296937.307 6 154109037.911 6  38272879.008    38272875.656
 191549654.943 6 148118287.298 7  36785102.109    36785093.797
 196309820.342 7 151799168.267 7  37699237.070    37699234.598
 207950765.388 6 160800752.603 6  39934759.359    39934764.512
 192417169.489 7 148789174.869 7  36951678.695    36951676.145
 196547969.329 7 151983419.178 6  37744971.570    37744967.949
 190119462.394 6 147012396.201 7  36510447.352    36510441.637
 191711801.223 7 148243689.972 7  36816238.297    36816231.973
 18  5 16  3  1 59.0000000  0 11C02C05C04C08C01C10C13C09C06C03C07
 195914500.170 6 151493480.948 7  37623326.547    37623321.039
 206766628.584 5 159885060.577 5  39707375.633    39707371.836
 197704414.392 6 152877563.090 7  37967060.141    37967054.723
 199295218.520 6 154107708.843 6  38272548.945    38272546.023
 191549636.522 6 148118273.052 7  36785098.813    36785090.504
 196309792.502 7 151799146.738 7  37699231.977    37699228.895
 207949275.222 6 160799600.316 6  39934472.602    39934478.418
 192418464.017 7 148790175.881 7  36951927.063    36951924.633
 196549541.390 7 151984634.790 6  37745273.938    37745269.906
 190119443.104 6 147012381.278 7  36510443.813    36510438.063
 191711666.053 7 148243585.447 7  36816212.305    36816206.129
 18  5 16  3  2  0.0000000  0 11C02C05C04C08C01C10C13C09C06C03C07
 195914491.719 6 151493474.409 7  37623325.109    37623319.516
 206766620.738 5 159885054.508 5  39707373.563    39707370.410
 197704404.838 6 152877555.701 6  37967058.234    37967053.348
 199293499.773 6 154106379.795 6  38272219.477    38272215.738
 191549618.052 6 148118258.766 7  36785095.516    36785086.902
 196309764.545 6 151799125.119 7  37699226.633    37699223.363
 207947784.956 6 160798447.950 6  39934186.531    39934192.320
 192419758.673 7 148791176.995 7  36952175.219    36952173.090
 196551113.504 7 151985850.443 6  37745575.977    37745571.773
 190119423.835 6 147012366.376 7  36510439.906    36510434.418
 191711530.814 7 148243480.874 7  36816186.313    36816180.578
 18  5 16  3  2  1.0000000  0 11C02C05C04C08C01C10C13C09C06C03C07
 195914482.989 6 151493467.668 7  37623323.258    37623317.902
 206766612.618 6 159885048.228 5  39707371.906    39707369.289
 197704395.035 6 152877548.119 7  37967056.367    37967051.395
 199291780.807 6 154105050.584 6  38271889.273    38271885.688
 191549599.320 6 148118244.280 7  36785091.820    36785083.188
 196309736.244 7 151799103.232 7  37699220.914    37699218.121
 207946294.464 6 160797295.411 6  39933900.438    39933906.250
 192421053.178 7 148792177.985 7  36952423.938    36952421.820
 196552685.344 7 151987065.891 6  37745877.328    37745873.730
 190119404.265 6 147012351.238 7  36510436.133    36510430.707
 191711395.235 7 148243376.034 7  36816160.109    36816154.129
 18  5 16  3  2  2.0000000  0 11C02C05C04C08C01C10C13C09C06C03C07
 195914474.410 6 151493461.031 7  37623321.836    37623316.449
 206766604.658 5 159885042.069 5  39707370.727    39707367.754
 197704385.368 6 152877540.646 6  37967054.250    37967049.664
 199290062.005 6 154103721.497 6  38271559.211    38271555.598
 191549580.721 6 148118229.897 7  36785088.172    36785079.867
 196309708.003 7 151799081.395 7  37699215.617    37699212.805
 207944804.032 6 160796142.911 6  39933613.664    39933619.961
 192422347.961 7 148793179.196 7  36952672.539    36952670.289
 196554257.422 7 151988281.522 6  37746179.516    37746175.594
 190119384.815 6 147012336.200 7  36510432.414    36510427.059
 191711259.632 7 148243271.177 7  36816134.609    36816127.945
 18  5 16  3  2  3.0000000  0 11C02C05C04C08C01C10C13C09C06C03C07
 195914465.945 6 151493454.490 7  37623319.789    37623314.664
 206766596.834 5 159885036.012 5  39707369.320    39707365.820
 197704375.845 6 152877533.287 6  37967052.367    37967047.809
 199288343.315 6 154102392.501 6  38271229.148    38271225.309
 191549562.273 6 148118215.629 7  36785084.648    36785076.348
 196309679.836 7 151799059.616 7  37699210.016    37699207.137
 207943313.694 6 160794990.482 6  39933328.242    39933333.457
 192423642.991 7 148794180.592 7  36952921.258    36952919.035
 196555829.658 7 151989497.272 6  37746481.156    37746477.348
 190119365.566 6 147012321.318 7  36510428.859    36510423.109
 191711124.133 7 148243166.399 7  36816108.164    36816101.961
 18  5 16  3  2  4.0000000  0 11C02C05C04C08C01C10C13C09C06C03C07
 195914457.236 6 151493447.753 7  37623318.422    37623313.047
 206766588.670 6 159885029.694 5  39707367.680    39707364.301
 197704366.026 6 152877525.692 6  37967050.367    37967045.711
 199286624.484 6 154101063.396 6  38270898.805    38270895.621
 191549543.562 6 148118201.164 7  36785081.195    36785072.785
 196309651.294 7 151799037.546 7  37699205.172    37699202.121
 207941823.088 6 160793837.850 6  39933041.602    39933046.992
 192424937.910 7 148795181.905 7  36953169.867    36953167.852
 196557401.717 7 151990712.885 6  37746783.195    37746779.125
 190119346.012 6 147012306.200 7  36510424.695    36510419.613
 191710988.275 7 148243061.344 7  36816082.219    36816075.809
 18  5 16  3  2  5.0000000  0 11C02C05C04C08C01C10C13C09C06C03C07
 195914448.559 6 151493441.040 7  37623316.789    37623311.328
 206766580.632 5 159885023.479 5  39707365.922    39707362.922
 197704356.327 6 152877518.189 6  37967048.094    37967044.094
 199284905.755 6 154099734.360 6  38270568.906    38270565.465
 191549524.925 6 148118186.755 7  36785077.523    36785069.070
 196309622.743 7 151799015.468 7  37699199.203    37699196.609
 207940332.476 6 160792685.216 6  39932755.297    39932760.844
 192426233.055 7 148796183.389 7  36953418.781    36953416.789
 196558973.844 7 151991928.558 6  37747085.250    37747081.453
 190119326.535 6 147012291.134 7  36510421.359    36510415.664
 191710852.401 7 148242956.278 7  36816056.023    36816050.109
 18  5 16  3  2  6.0000000  0 11C02C05C04C08C01C10C13C09C06C03C07
 195914439.912 6 151493434.356 7  37623315.031    37623309.957
 206766572.594 5 159885017.260 5  39707364.492    39707361.176
 197704346.594 6 152877510.664 6  37967046.383    37967041.961
 199283186.992 6 154098405.302 6  38270238.773    38270235.496
 191549506.291 6 148118172.349 7  36785074.227    36785065.254
 196309594.116 6 151798993.332 7  37699193.789    37699191.074
 207938841.812 6 160791532.535 6  39932468.883    39932474.332
 192427528.316 7 148797184.966 7  36953667.688    36953665.488
 196560546.062 7 151993144.299 6  37747387.297    37747383.023
 190119307.067 6 147012276.079 7  36510417.414    36510411.992
 191710716.431 7 148242851.134 7  36816030.023    36816023.988
 18  5 16  3  2  7.0000000  0 11C02C05C04C08C01C10C13C09C06C03C07
 195914431.376 6 151493427.749 7  37623313.430    37623308.063
 206766564.660 5 159885011.129 5  39707363.336    39707359.742
 197704336.991 6 152877503.236 6  37967044.594    37967040.434
 199281468.441 6 154097076.409 6  38269908.523    38269905.410
 191549487.805 6 148118158.055 7  36785070.484    36785061.684
 196309565.507 6 151798971.205 7  37699188.086    37699185.621
 207937351.284 6 160790379.956 6  39932183.281    39932188.246
 192428823.842 7 148798186.745 7  36953916.625    36953914.242
 196562118.457 7 151994360.176 6  37747689.648    37747684.875
 190119287.734 6 147012261.135 7  36510414.000    36510408.273
 191710580.513 7 148242746.033 7  36816003.836    36815997.598
 18  5 16  3  2  8.0000000  0 11C02C05C04C08C01C10C13C09C06C03C07
 195914422.937 6 151493421.223 7  37623311.469    37623306.914
 206766556.746 5 159885005.010 5  39707361.688    39707358.234
 197704327.450 6 152877495.861 6  37967043.383    37967038.566
 199279749.967 6 154095747.576 6  38269578.359    38269575.738
 191549469.323 6 148118143.766 7  36785066.883    36785058.066
 196309536.906 6 151798949.085 7  37699182.648    37699179.762
 207935860.729 6 160789227.365 6  39931895.984    39931902.301
 192430119.517 7 148799188.646 7  36954164.852    36954162.895
 196563690.901 7 151995576.084 6  37747991.781    37747987.031
 190119268.443 6 147012246.216 7  36510409.805    36510404.590
 191710444.547 7 148242640.893 7  36815977.633    36815971.551
 18  5 16  3  2  9.0000000  0 11C02C05C04C08C01C10C13C09C06C03C07
 195914414.315 6 151493414.559 7  37623309.805    37623305.000
 206766548.758 5 159884998.831 5  39707360.461    39707356.859
 197704317.793 6 152877488.393 7  37967041.086    37967036.363
 199278031.392 6 154094418.665 6  38269247.906    38269245.113
 191549450.745 6 148118129.398 7  36785063.672    36785054.984
 196309508.049 7 151798926.776 7  37699176.773    37699174.391
 207934370.056 6 160788074.681 6  39931610.258    39931615.758
 192431415.228 7 148800190.572 7  36954413.805    36954411.934
 196565263.285 7 151996791.949 6  37748293.188    37748289.012
 190119249.037 6 147012231.211 7  36510406.484    36510400.656
 191710308.361 7 148242535.589 7  36815951.430    36815945.563
 18  5 16  3  2 10.0000000  0 11C02C05C04C08C01C10C13C09C06C03C07
 195914405.751 6 151493407.938 7  37623308.484    37623303.141
 206766540.829 6 159884992.709 5  39707358.633    39707354.918
 197704308.164 6 152877480.938 6  37967039.867    37967034.863
 199276312.949 6 154093089.855 6  38268918.242    38268915.453
 191549432.217 6 148118115.076 7  36785060.141    36785051.086
 196309479.197 7 151798904.471 7  37699171.820    37699168.867
 207932879.409 6 160786922.018 6  39931323.656    39931329.371
 192432711.126 7 148801192.641 7  36954663.039    36954660.313
 196566835.810 7 151998007.925 6  37748594.672    37748591.023
 190119229.678 6 147012216.238 7  36510402.719    36510397.082
 191710172.152 7 148242430.261 7  36815925.648    36815919.316
 18  5 16  3  2 11.0000000  0 11C02C05C04C08C01C10C13C09C06C03C07
 195914397.089 6 151493401.241 7  37623306.242    37623301.129
 206766532.798 5 159884986.502 5  39707356.844    39707353.168
 197704298.472 6 152877473.444 6  37967037.359    37967032.785
 199274594.444 6 154091761.001 6  38268588.500    38268585.543
 191549413.618 6 148118100.702 7  36785056.672    36785047.594
 196309450.171 6 151798882.024 7  37699166.250    37699163.223
 207931388.603 6 160785769.237 6  39931037.914    39931042.699
 192434007.067 7 148802194.746 7  36954912.078    36954909.219
 196568408.267 6 151999223.848 6  37748897.133    37748893.117
 190119210.222 6 147012201.196 7  36510398.742    36510393.223
 191710035.794 7 148242324.821 7  36815899.148    36815892.883
 18  5 16  3  2 12.0000000  0 11C02C05C04C08C01C10C13C09C06C03C07
 195914388.608 6 151493394.674 7  37623304.516    37623299.742
 206766524.881 5 159884980.375 5  39707355.641    39707351.980
 197704288.918 6 152877466.057 6  37967035.461    37967030.852
 199272876.105 6 154090432.276 6  38268258.008    38268255.102
 191549395.153 6 148118086.424 7  36785052.867    36785044.027
 196309421.216 7 151798859.639 7  37699160.539    37699157.754
 207929897.887 6 160784616.531 6  39930751.977    39930757.188
 192435303.319 7 148803197.087 7  36955161.180    36955158.184
 196569980.939 7 152000439.935 6  37749199.039    37749195.352
 190119190.944 6 147012186.292 7  36510395.055    36510389.523
 191709899.470 7 148242219.402 7  36815873.133    36815866.402
 18  5 16  3  2 13.0000000  0 11C02C05C04C08C01C10C13C09C06C03C07
 195914379.788 6 151493387.856 7  37623302.914    37623297.836
 206766516.688 5 159884974.042 5  39707353.875    39707350.285
 197704279.041 6 152877458.420 6  37967033.578    37967028.836
 199271157.460 6 154089103.307 6  38267928.820    38267925.258
 191549376.362 6 148118071.897 7  36785048.844    36785040.496
 196309391.855 7 151798836.936 7  37699154.523    37699152.098
 207928406.874 6 160783463.585 6  39930465.258    39930470.750
 192436599.374 7 148804199.278 7  36955409.406    36955407.152
 196571553.337 6 152001655.811 6  37749501.297    37749497.121
 190119171.327 6 147012171.122 7  36510391.266    36510386.242
 191709762.744 7 148242113.678 7  36815847.070    36815840.797
 18  5 16  3  2 14.0000000  0 11C02C05C04C08C01C10C13C09C06C03C07
 195914371.092 6 151493381.130 7  37623301.273    37623296.387
 206766508.600 5 159884967.780 5  39707352.227    39707349.043
 197704269.280 6 152877450.866 6  37967031.594    37967027.125
 199269439.026 6 154087774.512 6  38267598.211    38267595.285
 191549357.727 6 148118057.482 7  36785045.844    36785037.113
 196309362.529 7 151798814.258 7  37699148.992    37699146.266
 207926915.897 6 160782310.659 6  39930178.891    39930183.965
 192437895.675 7 148805201.659 7  36955658.555    36955656.242
 196573125.893 7 152002871.807 6  37749802.633    37749798.953
 190119151.825 6 147012156.041 7  36510387.641    36510382.457
 191709626.048 7 148242007.971 7  36815820.828    36815814.441
 18  5 16  3  2 15.0000000  0 11C02C05C04C08C01C10C13C09C06C03C07
 195914362.763 6 151493374.692 7  37623300.219    37623294.613
 206766500.930 5 159884961.848 5  39707350.703    39707347.418
 197704259.929 6 152877443.631 6  37967030.016    37967025.215
 199267721.034 6 154086446.050 6  38267269.023    38267265.195
 191549339.463 6 148118043.347 7  36785042.086    36785033.844
 196309333.492 7 151798791.801 7  37699143.297    37699140.914
 207925425.326 6 160781158.047 6  39929892.359    39929897.863
 192439192.501 7 148806204.445 7  36955907.820    36955905.410
 196574698.897 7 152004088.152 6  37750104.773    37750101.254
 190119132.747 6 147012141.292 7  36510383.789    36510378.449
 191709489.655 7 148241902.503 7  36815794.516    36815787.957
 18  5 16  3  2 16.0000000  0 11C02C05C04C08C01C10C13C09C06C03C07
 195914354.109 6 151493368.001 7  37623298.492    37623292.973
 206766492.843 5 159884955.596 5  39707349.008    39707345.867
 197704250.233 6 152877436.135 7  37967028.133    37967023.297
 199266002.671 6 154085117.304 6  38266938.633    38266935.293
 191549320.863 6 148118028.959 7  36785038.375    36785029.867
 196309304.022 6 151798769.016 7  37699137.852    37699135.637
 207923934.320 6 160780005.113 6  39929606.047    39929611.223
 192440489.133 7 148807207.079 7  36956157.141    36956154.293
 196576271.617 7 152005304.274 6  37750406.781    37750403.438
 190119113.312 6 147012126.263 7  36510380.227    36510374.906
 191709352.816 7 148241796.690 7  36815767.930    36815761.887
 18  5 16  3  2 17.0000000  0 11C02C05C04C08C01C10C13C09C06C03C07
 195914345.629 6 151493361.445 7  37623297.109    37623291.387
 206766484.969 5 159884949.510 5  39707347.883    39707343.977
 197704240.688 6 152877428.759 6  37967026.125    37967021.180
 199264284.565 6 154083788.752 6  38266608.367    38266605.375
 191549302.437 6 148118014.707 7  36785035.039    36785026.547
 196309274.630 7 151798746.286 7  37699132.164    37699129.449
 207922443.489 6 160778852.305 6  39929319.594    39929325.094
 192441786.055 7 148808209.938 7  36956405.586    36956403.238
 196577844.537 7 152006520.559 6  37750709.016    37750704.949
 190119094.025 6 147012111.351 7  36510376.742    36510371.020
 191709216.078 7 148241690.957 7  36815741.867    36815735.703
 18  5 16  3  2 18.0000000  0 11C02C05C04C08C01C10C13C09C06C03C07
 195914336.946 6 151493354.729 7  37623295.438    37623289.855
 206766476.930 5 159884943.298 5  39707346.492    39707342.602
 197704231.005 6 152877421.277 6  37967023.891    37967019.504
 199262566.315 6 154082460.102 6  38266278.734    38266275.031
 191549283.864 6 148118000.344 7  36785031.078    36785022.383
 196309244.993 7 151798723.370 7  37699126.641    37699123.707
 207920952.456 6 160777699.348 6  39929033.266    39929038.957
 192443082.938 7 148809212.773 7  36956654.828    36956652.379
 196579417.350 7 152007736.752 6  37751010.828    37751007.137
 190119074.578 6 147012096.312 7  36510372.891    36510367.281
 191709079.073 7 148241585.017 7  36815715.148    36815709.207
 18  5 16  3  2 19.0000000  0 11C02C05C04C08C01C10C13C09C06C03C07
 195914328.470 6 151493348.166 7  37623294.055    37623288.398
 206766469.076 5 159884937.221 5  39707345.039    39707341.098
 197704221.473 6 152877413.901 6  37967022.609    37967017.609
 199260848.319 6 154081131.642 6  38265949.023    38265945.402
 191549265.420 6 148117986.084 7  36785027.609    36785019.121
 196309215.516 7 151798700.580 7  37699120.547    37699117.992
 207919461.523 6 160776546.465 6  39928746.898    39928752.582
 192444380.145 7 148810215.858 7  36956903.961    36956901.508
 196580990.399 6 152008953.129 6  37751312.453    37751309.156
 190119055.338 6 147012081.431 7  36510369.063    36510363.762
 191708942.187 7 148241479.165 7  36815689.188    36815682.898
 18  5 16  3  2 20.0000000  0 11C02C05C04C08C01C10C13C09C06C03C07
 195914319.980 6 151493341.599 7  37623291.852    37623286.633
 206766461.166 5 159884931.101 5  39707343.328    39707339.855
 197704211.932 6 152877406.522 6  37967020.977    37967015.781
 199259130.337 6 154079803.185 6  38265619.008    38265615.699
 191549246.981 6 148117971.831 7  36785024.313    36785015.746
 196309185.880 6 151798677.659 7  37699114.930    37699112.484
 207917970.580 6 160775393.572 6  39928460.633    39928466.383
 192445677.481 7 148811219.045 7  36957152.711    36957150.543
 196582563.475 6 152010169.531 6  37751615.102    37751611.480
 190119036.077 6 147012066.538 7  36510365.625    36510360.227
 191708805.203 7 148241373.237 7  36815663.375    36815656.594
 18  5 16  3  2 21.0000000  0 11C02C05C04C08C01C10C13C09C06C03C07
 195914311.468 6 151493335.018 7  37623290.680    37623285.125
 206766453.264 6 159884924.981 5  39707341.305    39707338.199
 197704202.383 6 152877399.137 6  37967018.953    37967014.195
 199257412.361 6 154078474.736 6  38265289.039    38265285.801
 191549228.543 6 148117957.578 7  36785020.867    36785012.090
 196309156.133 6 151798654.657 6  37699109.398    37699106.859
 207916479.569 6 160774240.633 6  39928174.281    39928180.121
 192446974.908 7 148812222.296 7  36957402.195    36957399.719
 196584136.594 6 152011385.963 6  37751916.883    37751913.094
 190119016.829 6 147012051.653 7  36510361.789    36510356.086
 191708668.079 7 148241267.205 7  36815636.758    36815630.465
 18  5 16  3  2 22.0000000  0 11C02C05C04C08C01C10C13C09C06C03C07
 195914302.873 6 151493328.375 7  37623288.445    37623283.508
 206766445.265 5 159884918.793 5  39707339.961    39707336.855
 197704192.775 6 152877391.703 6  37967016.984    37967012.551
 199255694.334 6 154077146.247 6  38264958.813    38264955.941
 191549210.052 6 148117943.281 7  36785017.430    36785008.813
 196309126.280 6 151798631.576 7  37699103.500    37699101.301
 207914988.451 6 160773087.599 6  39927888.242    39927893.367
 192448272.424 7 148813225.610 7  36957651.570    36957648.969
 196585709.676 6 152012602.370 6  37752219.211    37752215.418
 190118997.471 6 147012036.680 7  36510357.938    36510352.637
 191708530.827 7 148241161.075 7  36815610.531    36815604.082
 18  5 16  3  2 23.0000000  0 11C02C05C04C08C01C10C13C09C06C03C07
 195914294.086 6 151493321.583 7  37623286.852    37623281.715
 206766437.114 5 159884912.494 5  39707338.727    39707335.418
 197704182.975 6 152877384.122 6  37967015.617    37967010.320
 199253976.204 6 154075817.684 6  38264628.891    38264626.074
 191549191.377 6 148117928.835 7  36785013.742    36785005.266
 196309096.147 6 151798608.273 7  37699097.547    37699095.250
 207913497.137 6 160771934.427 6  39927601.773    39927607.195
 192449569.886 7 148814228.893 7  36957900.883    36957897.836
 196587282.642 6 152013818.689 6  37752521.500    37752517.949
 190118977.945 6 147012021.584 7  36510354.164    36510348.656
 191708393.294 7 148241054.728 7  36815583.883    36815577.406
 18  5 16  3  2 24.0000000  0 11C02C05C04C08C01C10C13C09C06C03C07
 195914285.440 6 151493314.895 7  37623284.883    37623280.145
 206766429.107 5 159884906.297 5  39707337.594    39707333.688
 197704173.331 6 152877376.667 6  37967013.203    37967008.816
 199252258.245 6 154074489.248 6  38264300.148    38264295.875
 191549172.828 6 148117914.488 7  36785009.695    36785001.633
 196309066.044 6 151798584.994 7  37699092.234    37699089.309
 207912005.894 6 160770781.299 6  39927315.641    39927321.137
 192450867.643 7 148815232.400 7  36958150.195    36958147.648
 196588855.777 6 152015035.135 6  37752823.391    37752819.988
 190118958.555 6 147012006.590 7  36510350.320    36510345.105
 191708255.798 7 148240948.404 7  36815557.352    36815551.160
 18  5 16  3  2 25.0000000  0 11C02C05C04C08C01C10C13C09C06C03C07
 195914276.928 6 151493308.317 7  37623283.961    37623278.813
 206766421.186 5 159884900.175 5  39707335.719    39707332.414
 197704163.760 6 152877369.269 6  37967011.227    37967006.789
 199250540.412 6 154073160.907 6  38263970.039    38263966.152
 191549154.389 6 148117900.231 7  36785006.117    36784998.266
 196309035.977 6 151798561.741 7  37699086.445    37699083.543
 207910514.739 6 160769628.242 6  39927029.055    39927034.711
 192452165.585 7 148816236.048 7  36958398.914    36958396.605
 196590429.100 7 152016251.727 6  37753125.828    37753122.215
 190118939.303 6 147011991.693 7  36510346.992    36510341.234
 191708118.353 7 148240842.121 7  36815530.797    36815524.730
 18  5 16  3  2 26.0000000  0 11C02C05C04C08C01C10C13C09C06C03C07
 195914268.538 6 151493301.832 7  37623282.359    37623276.781
 206766413.387 5 159884894.132 5  39707334.266    39707330.758
 197704154.357 6 152877361.993 6  37967009.492    37967004.797
 199248822.755 6 154071832.710 6  38263639.430    38263636.102
 191549136.107 6 148117886.091 7  36785002.859    36784994.453
 196309005.949 6 151798538.521 7  37699080.313    37699077.816
 207909023.668 6 160768475.251 6  39926742.805    39926748.387
 192453463.871 7 148817239.967 7  36958648.203    36958646.086
 196592002.578 6 152017468.439 6  37753427.977    37753424.184
 190118920.176 6 147011976.899 7  36510343.492    36510337.531
 191707980.948 7 148240735.873 7  36815505.039    36815498.238
 18  5 16  3  2 27.0000000  0 11C02C05C04C08C01C10C13C09C06C03C07
 195914259.896 6 151493295.140 7  37623280.031    37623275.453
 206766405.419 6 159884887.973 5  39707333.023    39707329.273
 197704144.709 6 152877354.534 6  37967007.594    37967002.883
 199247104.956 6 154070504.404 6  38263309.125    38263306.293
 191549117.579 6 148117871.770 7  36784999.305    36784990.641
 196308975.618 6 151798515.065 6  37699074.461    37699072.152
 207907532.332 6 160767322.058 6  39926456.383    39926461.766
 192454762.017 7 148818243.776 7  36958897.477    36958895.281
 196593575.919 6 152018685.045 6  37753729.523    37753726.445
 190118900.817 6 147011961.931 7  36510339.484    36510333.727
 191707843.215 7 148240629.366 7  36815478.305    36815471.852
 18  5 16  3  2 28.0000000  0 11C02C05C04C08C01C10C13C09C06C03C07
 195914251.128 6 151493288.357 7  37623278.492    37623273.367
 206766397.247 5 159884881.659 5  39707331.266    39707327.688
 197704134.899 6 152877346.948 6  37967005.469    37967000.957
 199245386.987 6 154069175.962 6  38262979.289    38262976.043
 191549098.909 6 148117857.329 7  36784995.875    36784987.117
 196308945.058 6 151798491.430 7  37699069.000    37699066.414
 207906040.809 6 160766168.715 6  39926170.102    39926174.895
 192456060.144 7 148819247.564 7  36959147.063    36959144.426
 196595149.111 7 152019901.536 6  37754031.820    37754028.426
 190118881.282 6 147011946.826 7  36510335.563    36510330.016
 191707705.262 7 148240522.691 7  36815451.680    36815445.406
 18  5 16  3  2 29.0000000  0 11C02C05C04C08C01C10C13C09C06C03C07
 195914242.398 6 151493281.611 7  37623277.102    37623271.676
 206766389.133 5 159884875.388 5  39707329.539    39707325.688
 197704125.184 6 152877339.440 6  37967004.258    37966999.258
 199243669.189 6 154067847.646 6  38262649.898    38262646.406
 191549080.309 6 148117842.946 7  36784992.195    36784983.777
 196308914.473 6 151798467.784 7  37699062.484    37699060.195
 207904549.335 6 160765015.416 6  39925883.922    39925888.727
 192457358.482 7 148820251.523 7  36959396.109    36959393.660
 196596722.454 6 152021118.139 6  37754334.203    37754330.629
 190118861.839 6 147011931.790 7  36510331.742    36510326.332
 191707567.301 7 148240416.011 7  36815424.836    36815418.855
 18  5 16  3  2 30.0000000  0 11C02C05C04C08C01C10C13C09C06C03C07
 195914233.747 6 151493274.922 7  37623275.203    37623270.063
 206766381.105 5 159884869.188 5  39707328.070    39707324.113
 197704115.521 6 152877331.970 6  37967002.625    37966997.543
 199241951.435 6 154066519.372 6  38262320.219    38262316.418
 191549061.758 6 148117828.601 7  36784988.883    36784980.031
 196308883.904 7 151798444.145 7  37699056.914    37699054.438
 207903057.896 6 160763862.141 6  39925597.250    39925602.367
 192458657.032 7 148821255.642 7  36959645.523    36959643.285
 196598295.912 6 152022334.829 6  37754635.992    37754632.934
 190118842.482 6 147011916.821 7  36510328.133    36510322.906
 191707429.299 7 148240309.303 7  36815398.508    36815392.480
 18  5 16  3  2 31.0000000  0 11C02C05C04C08C01C10C13C09C06C03C07
 195914224.981 6 151493268.138 7  37623273.586    37623268.512
 206766373.005 5 159884862.927 5  39707326.594    39707322.551
 197704105.764 6 152877324.418 6  37967000.414    37966995.852
 199240233.637 6 154065191.062 6  38261990.320    38261986.938
 191549043.117 6 148117814.192 7  36784985.195    36784976.605
 196308853.141 6 151798420.359 7  37699050.945    37699048.375
 207901566.282 6 160762708.731 6  39925311.000    39925315.777
 192459955.591 7 148822259.771 7  36959895.414    36959892.793
 196599869.284 7 152023551.460 6  37754938.242    37754935.094
 190118822.978 6 147011901.740 7  36510324.375    36510319.285
 191707291.123 7 148240202.452 7  36815372.109    36815366.031
 18  5 16  3  2 32.0000000  0 11C02C05C04C08C01C10C13C09C06C03C07
 195914216.288 6 151493261.413 7  37623271.805    37623266.773
 206766364.862 5 159884856.627 5  39707325.227    39707321.270
 197704096.050 6 152877316.911 6  37966998.383    37966993.609
 199238515.952 6 154063862.836 6  38261660.578    38261656.691
 191549024.571 6 148117799.850 7  36784981.922    36784972.887
 196308822.357 7 151798396.556 7  37699045.164    37699042.434
 207900074.714 6 160761555.360 6  39925024.102    39925029.574
 192461254.368 7 148823264.064 7  36960144.547    36960142.141
 196601442.791 7 152024768.196 6  37755240.633    37755237.195
 190118803.583 6 147011886.745 7  36510320.703    36510315.191
 191707152.888 7 148240095.557 7  36815345.445    36815339.324
 18  5 16  3  2 33.0000000  0 11C02C05C04C08C01C10C13C09C06C03C07
 195914207.855 6 151493254.896 7  37623270.531    37623264.711
 206766357.084 6 159884850.609 5  39707324.055    39707319.918
 197704086.633 6 152877309.628 6  37966996.484    37966991.824
 199236798.556 6 154062534.839 6  38261330.266    38261327.016
 191549006.247 6 148117785.678 7  36784978.188    36784969.641
 196308791.751 6 151798372.895 7  37699039.766    37699036.488
 207898583.369 6 160760402.153 6  39924738.141    39924743.430
 192462553.535 7 148824268.666 7  36960394.258    36960391.555
 196603016.595 7 152025985.156 6  37755543.133    37755539.379
 190118784.443 6 147011871.943 7  36510317.070    36510311.852
 191707014.840 7 148239988.814 7  36815318.664    36815312.758
 18  5 16  3  2 34.0000000  0 11C02C05C04C08C01C10C13C09C06C03C07
 195914199.148 6 151493248.164 7  37623268.805    37623263.023
 206766349.009 6 159884844.358 5  39707321.742    39707318.199
 197704076.935 6 152877302.127 6  37966994.820    37966990.008
 199235080.967 6 154061206.692 6  38261000.727    38260996.945
 191548987.699 6 148117771.333 7  36784974.039    36784965.734
 196308760.758 7 151798348.921 7  37699033.461    37699030.805
 207897091.756 6 160759248.746 6  39924451.438    39924456.934
 192463852.566 7 148825273.153 7  36960643.648    36960641.266
 196604590.219 7 152027201.979 6  37755845.203    37755841.195
 190118765.029 6 147011856.929 7  36510313.383    36510307.883
 191706876.444 7 148239881.802 7  36815292.766    36815286.027
 18  5 16  3  2 35.0000000  0 11C02C05C04C08C01C10C13C09C06C03C07
 195914190.767 6 151493241.688 7  37623267.398    37623261.691
 206766341.246 6 159884838.353 5  39707319.977    39707316.488
 197704067.511 6 152877294.839 6  37966993.258    37966987.980
 199233363.661 6 154059878.759 6  38260670.711    38260666.957
 191548969.426 6 148117757.206 7  36784970.586    36784962.082
 196308730.025 7 151798325.159 7  37699027.688    37699024.777
 207895600.430 6 160758095.557 6  39924165.031    39924170.621
 192465152.043 7 148826277.988 7  36960893.055    36960890.633
 196606164.179 7 152028419.063 6  37756147.656    37756143.852
 190118745.938 6 147011842.169 7  36510309.531    36510304.402
 191706738.276 7 148239774.954 7  36815266.211    36815259.582
 18  5 16  3  2 36.0000000  0 11C02C05C04C08C01C10C13C09C06C03C07
 195914181.976 6 151493234.886 7  37623266.180    37623260.180
 206766333.124 6 159884832.075 5  39707318.766    39707315.020
 197704057.760 6 152877287.306 6  37966991.164    37966986.039
 199231646.101 6 154058550.640 6  38260340.141    38260337.258
 191548950.795 6 148117742.799 7  36784967.461    36784959.211
 196308698.818 7 151798301.029 7  37699021.773    37699018.703
 207894108.630 6 160756941.997 6  39923878.336    39923883.844
 192466451.282 7 148827282.643 7  36961142.711    36961140.238
 196607737.761 6 152029635.856 6  37756449.813    37756445.922
 190118726.449 6 147011827.096 7  36510306.016    36510300.406
 191706599.643 7 148239667.754 7  36815239.133    36815233.336
 18  5 16  3  2 37.0000000  0 11C02C05C04C08C01C10C13C09C06C03C07
 195914173.344 6 151493228.210 7  37623264.102    37623258.656
 206766325.107 6 159884825.875 5  39707317.719    39707313.621
 197704048.158 6 152877279.879 6  37966989.484    37966984.633
 199229928.685 6 154057222.625 6  38260010.484    38260007.598
 191548932.336 6 148117728.524 7  36784963.883    36784955.441
 196308667.720 7 151798276.977 7  37699015.797    37699012.758
 207892616.990 6 160755788.574 6  39923592.086    39923597.230
 192467750.821 7 148828287.532 7  36961392.172    36961389.750
 196609311.666 6 152030852.898 6  37756751.883    37756748.113
 190118707.147 6 147011812.173 7  36510301.742    36510296.801
 191706461.097 7 148239560.631 7  36815212.508    36815206.449
 18  5 16  3  2 38.0000000  0 11C02C05C04C08C01C10C13C09C06C03C07
 195914164.676 6 151493221.508 7  37623262.375    37623256.844
 206766317.077 6 159884819.668 5  39707315.703    39707312.027
 197704038.507 6 152877272.415 6  37966987.563    37966982.723
 199228211.262 6 154055894.606 6  38259681.445    38259677.676
 191548913.811 6 148117714.192 7  36784960.250    36784951.645
 196308636.424 7 151798252.780 7  37699009.461    37699006.801
 207891125.263 6 160754635.078 6  39923306.023    39923310.926
 192469050.432 7 148829292.472 7  36961641.766    36961639.168
 196610885.481 7 152032069.865 6  37757054.281    37757050.320
 190118687.799 6 147011797.211 7  36510298.383    36510293.266
 191706322.384 7 148239453.367 7  36815186.172    36815180.035
 18  5 16  3  2 39.0000000  0 11C02C05C04C08C01C10C13C09C06C03C07
 195914156.044 6 151493214.832 7  37623260.273    37623255.164
 206766309.076 6 159884813.490 5  39707315.016    39707310.535
 197704028.884 6 152877264.973 6  37966985.531    37966981.055
 199226493.906 6 154054566.636 6  38259351.984    38259347.965
 191548895.314 6 148117699.894 7  36784956.680    36784947.918
 196308605.151 7 151798228.597 7  37699003.898    37699000.941
 207889633.514 6 160753481.552 6  39923019.281    39923024.625
 192470350.227 7 148830297.556 7  36961891.391    36961889.336
 196612459.414 7 152033286.928 6  37757356.328    37757352.547
 190118668.444 6 147011782.245 7  36510294.664    36510289.473
 191706183.625 7 148239346.067 7  36815159.586    36815153.324
 18  5 16  3  2 40.0000000  0 11C02C05C04C08C01C10C13C09C06C03C07
 195914147.283 6 151493208.061 7  37623258.492    37623253.664
 206766300.965 6 159884807.219 5  39707313.164    39707308.797
 197704019.162 6 152877257.457 6  37966983.836    37966979.148
 199224776.533 6 154053238.653 6  38259022.453    38259018.086
 191548876.753 6 148117685.538 7  36784952.961    36784944.902
 196308573.672 6 151798204.255 7  37698997.578    37698994.828
 207888141.650 6 160752327.952 6  39922732.641    39922737.836
 192471650.032 7 148831302.650 7  36962141.039    36962138.852
 196614033.275 7 152034503.943 6  37757658.633    37757654.770
 190118649.052 6 147011767.253 7  36510291.141    36510285.492
 191706044.683 7 148239238.626 7  36815132.922    36815126.898
 18  5 16  3  2 41.0000000  0 11C02C05C04C08C01C10C13C09C06C03C07
 195914138.752 6 151493201.466 7  37623256.836    37623251.434
 206766293.071 6 159884801.105 5  39707311.539    39707307.160
 197704009.686 6 152877250.132 6  37966981.742    37966977.578
 199223059.381 6 154051910.838 6  38258691.914    38258688.512
 191548858.383 6 148117671.337 7  36784949.609    36784941.063
 196308542.306 7 151798180.004 7  37698991.859    37698988.750
 207886649.958 6 160751174.484 6  39922446.383    39922451.703
 192472950.202 7 148832308.024 7  36962390.414    36962388.340
 196615607.443 7 152035721.189 6  37757960.867    37757956.969
 190118629.838 6 147011752.396 7  36510287.344    36510282.145
 191705905.926 7 148239131.328 7  36815105.844    36815099.891
 18  5 16  3  2 42.0000000  0 11C02C05C04C08C01C10C13C09C06C03C07
 195914130.323 6 151493194.940 7  37623255.477    37623249.730
 206766285.291 6 159884795.080 5  39707309.773    39707305.957
 197704000.295 6 152877242.868 6  37966979.961    37966975.480
 199221342.406 6 154050583.160 6  38258362.477    38258358.715
 191548840.128 6 148117657.221 7  36784946.477    36784937.574
 196308510.971 7 151798155.774 7  37698985.773    37698982.961
 207885158.356 6 160750021.077 6  39922159.375    39922165.195
 192474250.601 7 148833313.576 7  36962640.313    36962637.941
 196617181.727 7 152036938.519 6  37758263.250    37758259.406
 190118610.735 6 147011737.626 7  36510283.773    36510278.086
 191705767.138 7 148239024.004 7  36815079.516    36815073.125
 18  5 16  3  2 43.0000000  0 11C02C05C04C08C01C10C13C09C06C03C07
 195914121.894 6 151493188.424 7  37623253.742    37623248.289
 206766277.515 6 159884789.065 5  39707308.211    39707304.254
 197703990.927 6 152877235.621 6  37966978.148    37966973.836
 199219625.455 6 154049255.513 6  38258032.273    38258028.930
 191548821.900 6 148117643.124 7  36784942.891    36784933.992
 196308479.581 7 151798131.502 7  37698979.672    37698976.535
 207883666.700 6 160748867.645 6  39921873.211    39921878.387
 192475551.161 7 148834319.252 7  36962889.953    36962887.590
 196618756.083 7 152038155.915 6  37758565.664    37758562.070
 190118591.670 6 147011722.890 7  36510280.086    36510274.297
 191705628.284 7 148238916.634 7  36815052.625    36815046.559
 18  5 16  3  2 44.0000000  0 11C02C05C04C08C01C10C13C09C06C03C07
 195914113.160 6 151493181.677 7  37623251.828    37623246.945
 206766269.354 5 159884782.759 5  39707306.297    39707302.930
 197703981.202 6 152877228.100 7  37966976.766    37966972.168
 199217908.189 6 154047927.614 6  38257702.406    38257699.191
 191548803.335 6 148117628.776 7  36784938.766    36784930.324
 196308447.770 7 151798106.904 7  37698973.406    37698970.695
 207882174.651 6 160747713.904 6  39921587.016    39921592.160
 192476851.509 7 148835324.765 7  36963139.688    36963137.449
 196620330.153 7 152039373.078 6  37758867.672    37758864.199
 190118572.226 6 147011707.856 7  36510276.258    36510271.070
 191705489.016 7 148238808.943 7  36815025.977    36815019.711
 18  5 16  3  2 45.0000000  0 11C02C05C04C08C01C10C13C09C06C03C07
 195914104.532 6 151493175.001 7  37623250.469    37623245.516
 206766261.428 6 159884776.630 5  39707304.969    39707301.375
 197703971.613 6 152877220.687 6  37966974.633    37966970.285
 199216191.112 6 154046599.869 6  38257372.695    38257369.734
 191548784.886 6 148117614.509 7  36784935.102    36784926.977
 196308415.979 7 151798082.317 7  37698968.055    37698964.574
 207880682.745 6 160746560.268 6  39921300.469    39921306.113
 192478152.142 7 148836330.490 7  36963389.219    36963387.457
 196621904.381 7 152040590.365 6  37759170.305    37759166.508
 190118552.969 6 147011692.966 7  36510272.883    36510267.363
 191705349.779 7 148238701.275 7  36814999.047    36814992.844
 18  5 16  3  2 46.0000000  0 11C02C05C04C08C01C10C13C09C06C03C07
 195914095.920 6 151493168.345 7  37623248.625    37623243.957
 206766253.422 5 159884770.437 5  39707303.633    39707299.922
 197703962.017 6 152877213.264 6  37966972.773    37966968.609
 199214474.074 6 154045272.142 6  38257042.859    38257039.809
 191548766.421 6 148117600.233 7  36784931.766    36784923.191
 196308384.099 7 151798057.668 7  37698961.813    37698958.602
 207879190.784 6 160745406.583 6  39921013.844    39921019.699
 192479452.888 7 148837336.304 7  36963639.477    36963637.152
 196623478.682 7 152041807.713 6  37759472.578    37759468.613
 190118533.670 6 147011678.040 7  36510269.031    36510263.598
 191705210.416 7 148238593.512 7  36814972.422    36814966.344
 18  5 16  3  2 47.0000000  0 11C02C05C04C08C01C10C13C09C06C03C07
 195914087.221 6 151493161.615 7  37623247.461    37623241.973
 206766245.387 6 159884764.230 5  39707302.117    39707298.531
 197703952.388 6 152877205.818 6  37966971.234    37966966.426
 199212757.016 6 154043944.400 6  38256713.063    38256709.570
 191548747.915 6 148117585.923 7  36784928.656    36784919.746
 196308352.123 6 151798032.944 7  37698955.227    37698952.223
 207877698.736 6 160744252.838 6  39920726.898    39920733.309
 192480753.706 7 148838342.175 7  36963889.211    36963887.000
 196625052.965 7 152043025.052 6  37759774.586    37759771.109
 190118514.343 6 147011663.099 7  36510265.641    36510259.910
 191705070.949 7 148238485.668 7  36814945.797    36814939.477
 18  5 16  3  2 48.0000000  0 11C02C05C04C08C01C10C13C09C06C03C07
 195914078.491 6 151493154.858 7  37623245.625    37623240.383
 206766237.283 6 159884757.966 5  39707300.391    39707296.832
 197703942.651 6 152877198.285 6  37966969.234    37966964.609
 199211039.948 6 154042616.654 6  38256383.211    38256380.176
 191548729.397 6 148117571.606 7  36784924.625    36784916.484
 196308319.952 7 151798008.066 7  37698949.266    37698946.230
 207876206.621 6 160743099.038 6  39920440.164    39920446.488
 192482054.620 7 148839348.125 7  36964138.656    36964136.957
 196626627.273 7 152044242.410 6  37760077.109    37760073.289
 190118494.932 6 147011648.078 7  36510261.828    36510256.094
 191704931.353 7 148238377.720 7  36814918.484    36814912.883
 18  5 16  3  2 49.0000000  0 11C02C05C04C08C01C10C13C09C06C03C07
 195914069.680 6 151493148.045 7  37623243.750    37623238.633
 206766229.155 6 159884751.672 5  39707298.516    39707295.668
 197703932.960 6 152877190.802 6  37966966.930    37966962.527
 199209322.867 6 154041288.897 6  38256053.961    38256050.348
 191548710.808 6 148117557.220 7  36784921.414    36784912.777
 196308287.696 7 151797983.127 7  37698943.078    37698940.105
 207874714.403 6 160741945.168 6  39920153.680    39920159.719
 192483355.609 7 148840354.130 7  36964388.711    36964386.746
 196628201.557 7 152045459.738 6  37760379.328    37760375.941
 190118475.492 6 147011633.044 7  36510257.922    36510252.559
 191704791.615 7 148238269.664 7  36814892.172    36814885.750
 18  5 16  3  2 50.0000000  0 11C02C05C04C08C01C10C13C09C06C03C07
 195914061.063 6 151493141.390 7  37623242.180    37623236.590
 206766221.162 6 159884745.491 5  39707297.695    39707293.953
 197703923.361 6 152877183.380 6  37966964.750    37966960.859
 199207606.018 6 154039961.321 6  38255724.078    38255720.730
 191548692.402 6 148117542.982 7  36784918.125    36784909.113
 196308255.528 7 151797958.254 7  37698936.719    37698933.980
 207873222.272 6 160740791.348 6  39919867.336    39919872.852
 192484656.915 7 148841360.383 7  36964638.445    36964636.629
 196629776.070 7 152046677.251 6  37760682.000    37760678.293
 190118456.219 6 147011618.135 7  36510254.172    36510248.645
 191704651.966 7 148238161.675 7  36814865.352    36814858.930
 18  5 16  3  2 51.0000000  0 11C02C05C04C08C01C10C13C09C06C03C07
 195914052.442 6 151493134.724 7  37623240.219    37623235.203
 206766213.175 6 159884739.309 5  39707296.211    39707292.164
 197703913.794 6 152877175.970 7  37966963.531    37966959.086
 199205889.180 6 154038633.757 6  38255393.938    38255391.027
 191548674.006 6 148117528.754 7  36784913.961    36784905.355
 196308223.266 7 151797933.305 7  37698930.164    37698927.730
 207871730.188 6 160739637.576 6  39919580.844    39919586.578
 192485958.368 7 148842366.749 7  36964889.000    36964886.680
 196631350.624 7 152047894.792 6  37760984.469    37760980.574
 190118436.969 6 147011603.247 7  36510250.688    36510245.180
 191704512.235 7 148238053.627 7  36814838.367    36814832.082
 18  5 16  3  2 52.0000000  0 11C02C05C04C08C01C10C13C09C06C03C07
 195914043.608 6 151493127.893 7  37623238.875    37623233.563
 206766204.973 5 159884732.962 5  39707294.172    39707290.605
 197703904.043 6 152877168.430 6  37966961.148    37966956.879
 199204172.209 6 154037306.085 6  38255064.539    38255061.109
 191548655.344 6 148117514.329 7  36784910.453    36784901.742
 196308190.702 7 151797908.123 7  37698923.789    37698921.246
 207870237.816 6 160738483.578 6  39919293.891    39919299.738
 192487259.708 7 148843373.021 7  36965138.539    36965136.438
 196632925.025 6 152049112.217 6  37761286.758    37761283.184
 190118417.525 6 147011588.216 7  36510246.852    36510241.188
 191704372.188 7 148237945.333 7  36814811.281    36814804.906
 18  5 16  3  2 53.0000000  0 11C02C05C04C08C01C10C13C09C06C03C07
 195914035.040 6 151493121.263 7  37623237.297    37623232.156
 206766197.011 6 159884726.803 5  39707292.422    39707289.133
 197703894.528 6 152877161.069 6  37966959.508    37966954.973
 199202455.483 6 154035978.608 6  38254735.086    38254730.977
 191548636.998 6 148117500.144 7  36784907.188    36784898.379
 196308158.335 7 151797883.090 7  37698917.844    37698915.063
 207868745.688 6 160737329.775 6  39919007.875    39919013.023
 192488561.447 7 148844379.609 7  36965388.602    36965386.375
 196634499.714 6 152050329.868 6  37761589.008    37761585.719
 190118398.313 6 147011573.356 7  36510242.711    36510237.531
 191704232.310 7 148237837.173 7  36814784.820    36814777.945
 18  5 16  3  2 54.0000000  0 11C02C05C04C08C01C10C13C09C06C03C07
 195914026.417 6 151493114.585 7  37623235.539    37623230.324
 206766189.027 5 159884720.631 5  39707291.289    39707287.473
 197703884.937 6 152877153.655 6  37966957.969    37966952.898
 199200738.761 6 154034651.136 6  38254405.906    38254401.906
 191548618.595 6 148117485.912 7  36784903.648    36784894.777
 196308125.812 7 151797857.942 7  37698911.531    37698908.895
 207867253.446 6 160736175.879 6  39918721.680    39918726.656
 192489863.275 7 148845386.266 7  36965638.781    36965636.348
 196636074.413 7 152051547.521 6  37761890.742    37761887.688
 190118379.055 6 147011558.464 7  36510239.281    36510233.434
 191704092.304 7 148237728.914 7  36814758.164    36814751.512
 18  5 16  3  2 55.0000000  0 11C02C05C04C08C01C10C13C09C06C03C07
 195914017.683 6 151493107.835 7  37623233.828    37623228.633
 206766180.954 5 159884714.393 5  39707290.086    39707285.727
 197703875.293 6 152877146.204 6  37966956.422    37966951.340
 199199022.003 6 154033323.628 6  38254075.977    38254072.199
 191548600.105 6 148117471.614 7  36784899.734    36784891.082
 196308093.098 7 151797832.645 7  37698905.336    37698902.551
 207865761.114 6 160735021.917 6  39918434.352    39918440.383
 192491165.121 7 148846392.936 7  36965888.406    36965886.238
 196637649.069 7 152052765.140 6  37762193.867    37762190.113
 190118359.710 6 147011543.511 7  36510235.313    36510229.984
 191703952.117 7 148237620.516 7  36814730.977    36814724.547
 18  5 16  3  2 56.0000000  0 11C02C05C04C08C01C10C13C09C06C03C07
 195914009.008 6 151493101.128 7  37623232.164    37623227.180
 206766172.974 5 159884708.217 5  39707287.180    39707284.250
 197703865.657 6 152877138.745 6  37966954.789    37966949.516
 199197305.349 6 154031996.208 6  38253746.367    38253742.387
 191548581.642 6 148117457.337 7  36784896.680    36784887.875
 196308060.388 7 151797807.350 7  37698899.000    37698896.469
 207864268.783 6 160733867.948 6  39918147.734    39918153.258
 192492467.176 7 148847399.772 7  36966138.297    36966136.219
 196639223.831 7 152053982.848 6  37762496.359    37762492.516
 190118340.404 6 147011528.579 7  36510231.883    36510226.273
 191703811.879 7 148237512.076 7  36814703.641    36814697.805
 18  5 16  3  2 57.0000000  0 11C02C05C04C08C01C10C13C09C06C03C07
 195914000.464 6 151493094.523 7  37623230.695    37623225.297
 206766165.033 6 159884702.074 5  39707286.398    39707282.914
 197703856.123 6 152877131.373 6  37966952.773    37966947.910
 199195588.832 6 154030668.882 6  38253416.563    38253412.863
 191548563.318 6 148117443.166 7  36784893.133    36784884.047
 196308027.683 7 151797782.060 7  37698892.586    37698890.074
 207862776.544 6 160732714.056 6  39917862.266    39917866.777
 192493769.507 7 148848406.817 7  36966388.492    36966386.352
 196640798.767 7 152055200.681 6  37762798.664    37762794.934
 190118321.253 6 147011513.775 7  36510228.148    36510222.523
 191703671.708 7 148237403.684 7  36814677.156    36814670.672
 18  5 16  3  2 58.0000000  0 11C02C05C04C08C01C10C13C09C06C03C07
 195913991.831 6 151493087.847 7  37623229.016    37623223.723
 206766157.078 6 159884695.928 6  39707285.242    39707281.160
 197703846.595 6 152877124.004 6  37966950.648    37966945.855
 199193872.332 6 154029341.576 6  38253086.984    38253083.492
 191548544.916 6 148117428.941 7  36784889.016    36784880.551
 196307994.843 7 151797756.668 7  37698886.867    37698884.086
 207861284.193 6 160731560.073 6  39917574.820    39917580.469
 192495071.890 7 148849413.900 7  36966638.609    36966636.371
 196642373.676 7 152056418.502 6  37763101.297    37763097.199
 190118302.027 6 147011498.904 7  36510223.656    36510218.980
 191703531.367 7 148237295.162 7  36814649.984    36814643.973
 18  5 16  3  2 59.0000000  0 11C02C05C04C08C01C10C13C09C06C03C07
 195913983.235 6 151493081.199 7  37623227.438    37623222.316
 206766149.113 5 159884689.769 5  39707283.516    39707280.098
 197703837.098 6 152877116.662 6  37966949.242    37966943.781
 199192155.883 6 154028014.304 6  38252757.180    38252753.395
 191548526.584 6 148117414.768 7  36784885.672    36784877.262
 196307961.971 7 151797731.250 7  37698879.867    37698877.258
 207859791.861 6 160730406.112 6  39917288.203    39917293.793
 192496374.449 7 148850421.119 7  36966889.023    36966886.742
 196643948.686 7 152057636.394 6  37763403.945    37763400.012
 190118282.850 6 147011484.078 7  36510220.664    36510215.180
 191703390.985 7 148237186.611 7  36814622.867    36814616.781
 18  5 16  3  3  0.0000000  0 11C02C05C04C08C01C10C13C09C06C03C07
 195913974.253 6 151493074.255 7  37623225.398    37623220.281
 206766140.832 6 159884683.368 6  39707281.680    39707278.324
 197703827.193 6 152877109.003 6  37966947.328    37966942.254
 199190439.086 6 154026686.766 6  38252427.797    38252423.773
 191548507.853 6 148117400.274 7  36784882.008    36784873.926
 196307928.617 7 151797705.455 7  37698873.836    37698871.039
 207858299.070 6 160729251.787 6  39917001.633    39917007.543
 192497676.742 7 148851428.127 7  36967138.977    36967136.379
 196645523.349 7 152058854.020 6  37763706.328    37763702.316
 190118263.281 6 147011468.949 7  36510217.023    36510211.066
 191703250.128 7 148237077.686 7  36814596.016    36814589.938
 18  5 16  3  3  1.0000000  0 11C02C05C04C08C01C10C13C09C06C03C07
 195913965.158 6 151493067.217 7  37623223.453    37623218.523
 206766132.381 6 159884676.825 5  39707280.516    39707276.379
 197703817.174 6 152877101.257 6  37966944.992    37966940.191
 199188722.206 6 154025359.172 6  38252097.977    38252094.137
 191548488.980 6 148117385.677 7  36784878.695    36784869.906
 196307895.055 7 151797679.508 7  37698867.500    37698864.598
 207856806.176 6 160728097.383 6  39916714.992    39916720.609
 192498979.059 7 148852435.164 7  36967389.484    36967386.664
 196647097.920 7 152060071.576 6  37764008.758    37764004.781
 190118243.565 6 147011453.701 7  36510213.328    36510207.824
 191703109.041 7 148236968.583 7  36814569.094    36814562.793
 18  5 16  3  3  2.0000000  0 11C02C05C04C08C01C10C13C09C06C03C07
 195913956.473 6 151493060.504 7  37623221.805    37623216.953
 206766124.361 6 159884670.621 6  39707278.953    39707275.156
 197703807.601 6 152877093.858 6  37966942.906    37966938.191
 199187005.823 6 154024031.961 6  38251768.203    38251764.641
 191548470.588 6 148117371.463 7  36784875.453    36784866.449
 196307861.872 7 151797653.847 7  37698860.742    37698858.355
 207855313.641 6 160726943.259 6  39916428.320    39916434.254
 192500281.941 7 148853442.635 7  36967639.367    36967636.980
 196648673.021 7 152061289.538 6  37764310.977    37764307.109
 190118224.319 6 147011438.814 7  36510209.766    36510203.859
 191702968.364 7 148236859.799 7  36814542.086    36814535.680
 18  5 16  3  3  3.0000000  0 11C02C05C04C08C01C10C13C09C06C03C07
 195913947.675 6 151493053.704 7  37623220.563    37623215.141
 206766116.206 6 159884664.316 5  39707277.578    39707273.293
 197703797.881 6 152877086.344 6  37966941.922    37966936.777
 199185289.360 6 154022704.680 6  38251438.734    38251435.254
 191548452.059 6 148117357.130 7  36784871.344    36784862.809
 196307828.459 7 151797628.013 7  37698854.633    37698851.820
 207853820.940 6 160725789.009 6  39916141.836    39916147.090
 192501584.841 7 148854450.120 7  36967889.664    36967887.441
 196650248.031 6 152062507.432 6  37764613.297    37764609.605
 190118204.960 6 147011423.846 7  36510205.609    36510200.328
 191702827.410 7 148236750.805 7  36814514.719    36814508.535
 18  5 16  3  3  4.0000000  0 11C02C05C04C08C01C10C13C09C06C03C07
 195913938.830 6 151493046.858 7  37623218.414    37623213.547
 206766108.071 6 159884658.020 6  39707275.938    39707271.945
 197703788.164 6 152877078.833 6  37966939.117    37966934.961
 199183572.871 6 154021377.381 6  38251109.297    38251105.656
 191548433.490 6 148117342.771 7  36784868.102    36784859.066
 196307794.938 7 151797602.091 7  37698848.016    37698845.430
 207852328.237 6 160724634.758 6  39915855.047    39915860.293
 192502887.842 7 148855457.677 7  36968139.773    36968137.648
 196651823.062 7 152063725.353 6  37764915.906    37764911.824
 190118185.562 6 147011408.843 7  36510202.164    36510196.645
 191702686.372 7 148236641.745 7  36814487.656    36814481.480
 18  5 16  3  3  5.0000000  0 11C02C05C04C08C01C10C13C09C06C03C07
 195913930.101 6 151493040.107 7  37623216.313    37623211.832
 206766099.935 6 159884651.724 5  39707274.258    39707270.520
 197703778.509 6 152877071.360 6  37966937.188    37966932.953
 199181856.512 6 154020050.187 6  38250780.195    38250776.008
 191548415.035 6 148117328.501 7  36784864.156    36784855.551
 196307761.432 7 151797576.178 7  37698841.703    37698839.027
 207850835.502 6 160723480.478 6  39915568.258    39915573.953
 192504191.043 7 148856465.401 7  36968389.852    36968387.668
 196653398.199 6 152064943.352 6  37765217.969    37765214.438
 190118166.218 6 147011393.886 7  36510198.445    36510192.996
 191702545.328 7 148236532.684 7  36814460.188    36814454.691
 18  5 16  3  3  6.0000000  0 11C02C05C04C08C01C10C13C09C06C03C07
 195913921.296 6 151493033.293 7  37623215.305    37623210.469
 206766091.791 5 159884645.436 5  39707273.492    39707268.777
 197703768.797 6 152877063.846 6  37966935.594    37966931.027
 199180140.145 6 154018722.980 6  38250450.297    38250446.199
 191548396.505 6 148117314.175 7  36784860.727    36784852.316
 196307727.752 7 151797550.127 7  37698835.203    37698832.434
 207849342.742 6 160722326.178 6  39915281.359    39915286.977
 192505494.345 7 148857473.199 7  36968640.469    36968637.996
 196654973.336 7 152066161.340 6  37765520.656    37765516.906
 190118146.846 6 147011378.911 7  36510194.789    36510189.156
 191702404.141 7 148236423.507 7  36814433.242    36814427.359
 18  5 16  3  3  7.0000000  0 11C02C05C04C08C01C10C13C09C06C03C07
 195913912.548 6 151493026.534 7  37623213.422    37623208.813
 206766083.713 5 159884639.189 5  39707271.117    39707267.160
 197703759.155 6 152877056.395 6  37966933.930    37966929.223
 199178423.873 6 154017395.836 6  38250120.234    38250116.410
 191548378.023 6 148117299.886 7  36784857.484    36784848.973
 196307694.052 7 151797524.071 7  37698828.836    37698826.129
 207847849.952 6 160721171.857 6  39914994.875    39915000.586
 192506797.804 7 148858481.114 7  36968890.930    36968888.230
 196656548.563 7 152067379.405 6  37765823.477    37765819.270
 190118127.504 6 147011363.952 7  36510190.672    36510185.484
 191702262.915 7 148236314.302 7  36814406.492    36814400.262
 18  5 16  3  3  8.0000000  0 11C02C05C04C08C01C10C13C09C06C03C07
 195913904.144 6 151493020.032 7  37623211.945    37623206.844
 206766075.959 5 159884633.182 5  39707269.922    39707265.633
 197703749.879 6 152877049.221 6  37966931.922    37966927.621
 199176707.996 6 154016069.015 6  38249790.906    38249787.125
 191548359.902 6 148117285.873 7  36784854.203    36784845.383
 196307660.629 7 151797498.233 7  37698822.086    37698819.395
 207846357.497 6 160720017.797 6  39914707.836    39914713.805
 192508101.777 7 148859489.427 7  36969140.852    36969138.949
 196658124.225 7 152068597.806 6  37766126.023    37766121.699
 190118108.556 6 147011349.303 7  36510187.305    36510182.043
 191702121.964 7 148236205.309 7  36814379.367    36814373.152
 18  5 16  3  3  9.0000000  0 11C02C05C04C08C01C10C13C09C06C03C07
 195913895.298 6 151493013.196 7  37623210.313    37623205.168
 206766067.787 5 159884626.864 5  39707267.734    39707263.848
 197703740.153 6 152877041.701 6  37966930.695    37966925.770
 199174991.698 6 154014741.868 6  38249460.914    38249457.164
 191548341.360 6 148117271.533 7  36784850.680    36784841.852
 196307626.680 7 151797471.981 7  37698815.750    37698813.039
 207844864.608 6 160718863.411 6  39914421.664    39914427.355
 192509405.470 7 148860497.523 7  36969391.594    36969389.270
 196659699.470 7 152069815.885 6  37766428.227    37766424.441
 190118089.151 6 147011334.301 7  36510183.570    36510178.160
 191701980.474 7 148236095.902 7  36814352.305    36814346.145
 18  5 16  3  3 10.0000000  0 11C02C05C04C08C01C10C13C09C06C03C07
 195913886.551 6 151493006.435 7  37623208.148    37623203.262
 206766059.751 5 159884620.647 5  39707265.961    39707262.398
 197703730.535 6 152877034.261 7  37966928.859    37966923.684
 199173275.621 6 154013414.885 6  38249131.844    38249127.578
 191548322.930 6 148117257.277 7  36784846.469    36784838.363
 196307592.757 7 151797445.757 7  37698809.430    37698806.598
 207843371.773 6 160717709.056 6  39914134.711    39914140.492
 192510709.376 7 148861505.781 7  36969641.992    36969639.590
 196661274.890 7 152071034.090 6  37766730.805    37766726.934
 190118069.881 6 147011319.396 7  36510179.930    36510174.336
 191701839.048 7 148235986.545 7  36814325.219    36814318.797
 18  5 16  3  3 11.0000000  0 11C02C05C04C08C01C10C13C09C06C03C07
 195913877.910 6 151492999.755 7  37623207.305    37623201.750
 206766051.739 6 159884614.450 5  39707264.945    39707260.367
 197703720.977 6 152877026.866 7  37966926.992    37966922.125
 199171559.574 6 154012087.933 6  38248802.516    38248797.918
 191548304.557 6 148117243.071 7  36784843.242    36784834.715
 196307558.829 7 151797419.520 7  37698803.109    37698800.410
 207841878.922 6 160716554.687 6  39913848.852    39913854.191
 192512013.494 7 148862514.207 7  36969892.141    36969890.227
 196662850.473 7 152072252.434 6  37767032.938    37767029.672
 190118050.665 6 147011304.536 7  36510176.305    36510170.883
 191701697.575 7 148235877.147 7  36814298.070    36814291.875
 18  5 16  3  3 12.0000000  0 11C02C05C04C08C01C10C13C09C06C03C07
 195913869.086 6 151492992.935 7  37623205.086    37623200.004
 206766043.582 6 159884608.146 5  39707263.594    39707258.848
 197703711.273 6 152877019.359 7  37966924.875    37966920.043
 199169843.469 6 154010760.936 6  38248472.445    38248468.398
 191548286.042 6 148117228.752 7  36784839.586    36784831.242
 196307524.680 7 151797393.106 7  37698796.406    37698793.680
 207840385.957 6 160715400.233 6  39913561.594    39913567.203
 192513317.588 7 148863522.618 7  36970142.133    36970140.355
 196664425.895 7 152073470.648 6  37767336.070    37767331.926
 190118031.330 6 147011289.587 7  36510173.164    36510166.938
 191701555.882 7 148235767.576 7  36814271.070    36814264.535
 18  5 16  3  3 13.0000000  0 11C02C05C04C08C01C10C13C09C06C03C07
 195913860.545 6 151492986.324 7  37623203.625    37623198.395
 206766035.744 6 159884602.069 5  39707262.359    39707257.492
 197703701.847 6 152877012.072 6  37966922.672    37966918.191
 199168127.659 6 154009434.165 6  38248143.141    38248138.953
 191548267.807 6 148117214.653 7  36784836.180    36784827.520
 196307490.703 7 151797366.825 7  37698790.164    37698787.234
 207838893.222 6 160714245.949 6  39913274.797    39913280.695
 192514622.115 7 148864531.359 7  36970392.953    36970390.805
 196666001.680 7 152074689.146 6  37767638.531    37767634.387
 190118012.267 6 147011274.844 7  36510169.133    36510163.227
 191701414.382 7 148235658.157 7  36814243.609    36814236.875
 18  5 16  3  3 14.0000000  0 11C02C05C04C08C01C10C13C09C06C03C07
 195913851.946 6 151492979.679 7  37623201.531    37623196.906
 206766027.802 6 159884595.930 5  39707260.391    39707255.852
 197703692.375 6 152877004.748 6  37966921.172    37966916.516
 199166411.816 6 154008107.357 6  38247813.602    38247809.621
 191548249.499 6 148117200.496 7  36784832.688    36784823.938
 196307456.554 7 151797340.413 7  37698783.422    37698780.418
 207837400.335 6 160713091.550 6  39912988.406    39912993.906
 192515926.676 7 148865540.130 7  36970643.680    36970641.281
 196667577.417 7 152075907.607 6  37767941.313    37767937.164
 190117993.101 6 147011260.021 7  36510165.328    36510159.492
 191701272.675 7 148235548.580 7  36814216.727    36814210.008
 18  5 16  3  3 15.0000000  0 11C02C05C04C08C01C10C13C09C06C03C07
 195913843.280 6 151492972.973 7  37623200.453    37623195.098
 206766019.752 6 159884589.706 5  39707259.078    39707254.020
 197703682.771 6 152876997.320 6  37966918.914    37966914.430
 199164695.932 6 154006780.527 6  38247483.867    38247480.051
 191548231.133 6 148117186.295 7  36784829.102    36784820.465
 196307422.237 7 151797313.882 7  37698776.734    37698773.730
 207835907.405 6 160711937.128 6  39912701.680    39912707.148
 192517231.280 7 148866548.932 7  36970894.234    36970892.004
 196669153.126 7 152077126.038 6  37768244.008    37768240.180
 190117973.856 6 147011245.143 7  36510161.688    36510155.973
 191701130.806 7 148235438.878 7  36814188.977    36814182.969
 18  5 16  3  3 16.0000000  0 11C02C05C04C08C01C10C13C09C06C03C07
 195913834.543 6 151492966.225 7  37623198.844    37623193.305
 206766011.703 6 159884583.506 5  39707257.039    39707252.645
 197703673.192 6 152876989.916 6  37966917.219    37966912.398
 199162980.087 6 154005453.729 6  38247154.234    38247150.605
 191548212.716 6 148117172.052 7  36784825.445    36784816.738
 196307387.846 7 151797287.286 7  37698770.391    37698767.039
 207834414.366 6 160710782.609 6  39912415.109    39912420.348
 192518536.028 7 148867557.849 7  36971144.945    36971142.500
 196670728.852 7 152078344.486 6  37768546.945    37768542.633
 190117954.618 6 147011230.263 7  36510157.648    36510152.297
 191700988.844 7 148235329.108 7  36814161.953    36814155.715
 18  5 16  3  3 17.0000000  0 11C02C05C04C08C01C10C13C09C06C03C07
 195913825.769 6 151492959.437 7  37623196.969    37623191.746
 206766003.645 6 159884577.283 5  39707255.813    39707251.172
 197703663.554 6 152876982.465 6  37966915.805    37966910.609
 199161264.213 6 154004126.914 6  38246824.484    38246821.055
 191548194.266 6 148117157.791 7  36784822.000    36784813.250
 196307353.353 7 151797260.611 7  37698763.680    37698760.516
 207832921.233 6 160709628.027 6  39912127.938    39912133.344
 192519840.863 7 148868566.829 7  36971395.820    36971392.977
 196672304.566 7 152079562.926 6  37768849.047    37768845.000
 190117935.306 6 147011215.327 7  36510154.211    36510148.547
 191700846.766 7 148235219.244 7  36814134.164    36814128.070
 18  5 16  3  3 18.0000000  0 11C02C05C04C08C01C10C13C09C06C03C07
 195913817.103 6 151492952.738 7  37623195.211    37623190.094
 206765995.668 6 159884571.109 5  39707253.891    39707249.867
 197703654.038 6 152876975.110 6  37966913.422    37966908.898
 199159548.536 6 154002800.247 6  38246495.766    38246491.523
 191548175.973 6 148117143.641 7  36784818.563    36784809.738
 196307318.854 7 151797233.935 7  37698756.617    37698753.801
 207831428.203 6 160708473.521 6  39911841.359    39911846.523
 192521145.964 7 148869576.010 7  36971645.742    36971643.676
 196673880.525 7 152080781.555 6  37769152.008    37769147.656
 190117916.182 6 147011200.536 7  36510150.625    36510144.949
 191700704.712 7 148235109.399 7  36814106.844    36814100.773
 18  5 16  3  3 19.0000000  0 11C02C05C04C08C01C10C13C09C06C03C07
 195913808.460 6 151492946.046 7  37623193.555    37623188.754
 206765987.657 6 159884564.907 5  39707252.531    39707248.188
 197703644.479 6 152876967.711 6  37966911.594    37966907.102
 199157832.830 6 154001473.550 6  38246166.133    38246161.906
 191548157.645 6 148117129.470 7  36784815.070    36784806.453
 196307284.261 7 151797207.194 7  37698749.922    37698747.148
 207829935.181 6 160707319.030 6  39911554.492    39911559.824
 192522451.140 7 148870585.253 7  36971896.898    36971894.277
 196675456.436 7 152082000.151 6  37769454.422    37769450.230
 190117896.997 6 147011185.702 7  36510146.930    36510141.273
 191700562.554 7 148234999.469 7  36814079.852    36814073.430
 18  5 16  3  3 20.0000000  0 11C02C05C04C08C01C10C13C09C06C03C07
 195913799.807 6 151492939.349 7  37623191.461    37623186.891
 206765979.669 6 159884558.727 5  39707251.164    39707246.840
 197703634.977 6 152876960.365 7  37966910.219    37966905.160
 199156117.197 6 154000146.915 6  38245836.938    38245832.895
 191548139.299 6 148117115.284 7  36784811.313    36784803.230
 196307249.578 7 151797180.375 7  37698743.445    37698740.680
 207828442.068 6 160706164.460 6  39911268.086    39911273.379
 192523756.478 7 148871594.629 7  36972147.500    36972144.926
 196677032.421 7 152083218.800 6  37769756.570    37769753.141
 190117877.801 6 147011170.857 7  36510142.758    36510137.516
 191700420.352 7 148234889.509 7  36814053.070    36814046.348
 18  5 16  3  3 21.0000000  0 11C02C05C04C08C01C10C13C09C06C03C07
 195913791.270 6 151492932.753 7  37623190.469    37623185.328
 206765971.866 6 159884552.687 5  39707249.469    39707245.367
 197703625.590 6 152876953.106 6  37966908.250    37966903.578
 199154401.730 6 153998820.403 6  38245506.953    38245503.383
 191548121.121 6 148117101.230 7  36784807.734    36784799.125
 196307214.985 7 151797153.624 7  37698737.117    37698733.934
 207826949.111 6 160705010.017 6  39910981.734    39910986.996
 192525062.107 7 148872604.226 7  36972397.938    36972395.973
 196678608.638 7 152084437.631 6  37770059.398    37770055.816
 190117858.777 6 147011156.147 7  36510139.258    36510133.820
 191700278.162 7 148234779.561 7  36814025.453    36814019.141
 18  5 16  3  3 22.0000000  0 11C02C05C04C08C01C10C13C09C06C03C07
 195913782.661 6 151492926.096 7  37623188.414    37623183.344
 206765963.910 6 159884546.534 5  39707247.867    39707243.867
 197703616.117 6 152876945.778 6  37966906.180    37966901.766
 199152686.251 6 153997493.889 6  38245176.953    38245173.531
 191548102.863 6 148117087.107 7  36784804.617    36784795.758
 196307180.200 7 151797126.729 7  37698730.703    37698727.371
 207825456.029 6 160703855.467 6  39910694.531    39910699.926
 192526367.751 7 148873613.828 7  36972649.078    36972646.324
 196680184.788 6 152085656.408 6  37770362.188    37770358.418
 190117839.648 6 147011141.358 7  36510135.430    36510129.945
 191700135.823 7 148234669.494 7  36813998.570    36813991.699
 18  5 16  3  3 23.0000000  0 11C02C05C04C08C01C10C13C09C06C03C07
 195913773.896 6 151492919.322 7  37623186.852    37623181.754
 206765955.852 6 159884540.304 5  39707246.797    39707242.488
 197703606.495 6 152876938.342 6  37966904.258    37966899.531
 199150970.670 6 153996167.290 6  38244847.750    38244844.313
 191548084.452 6 148117072.870 7  36784800.992    36784792.086
 196307145.202 7 151797099.667 7  37698723.758    37698720.863
 207823962.719 6 160702700.744 6  39910408.055    39910413.352
 192527673.413 7 148874623.446 7  36972899.906    36972897.340
 196681760.846 7 152086875.115 6  37770665.023    37770661.336
 190117820.405 6 147011126.482 7  36510131.602    36510126.328
 191699993.217 7 148234559.223 7  36813970.695    36813963.965
 18  5 16  3  3 24.0000000  0 11C02C05C04C08C01C10C13C09C06C03C07
 195913765.221 6 151492912.614 7  37623184.750    37623180.273
 206765947.836 6 159884534.104 5  39707244.898    39707240.980
 197703596.956 6 152876930.963 6  37966903.102    37966898.195
 199149255.171 6 153994840.756 6  38244518.539    38244514.961
 191548066.121 6 148117058.690 7  36784797.156    36784788.516
 196307110.197 7 151797072.598 7  37698716.711    37698713.773
 207822469.505 6 160701546.093 6  39910120.867    39910126.383
 192528979.267 7 148875633.212 7  36973150.617    36973148.043
 196683336.992 6 152088093.894 6  37770967.023    37770963.723
 190117801.220 6 147011111.645 7  36510128.523    36510122.918
 191699850.655 7 148234448.982 7  36813943.391    36813936.785
 18  5 16  3  3 25.0000000  0 11C02C05C04C08C01C10C13C09C06C03C07
 195913756.364 6 151492905.761 7  37623183.703    37623178.500
 206765939.634 5 159884527.759 5  39707243.086    39707239.410
 197703587.256 6 152876923.462 6  37966900.781    37966896.402
 199147539.569 6 153993514.150 6  38244189.102    38244185.387
 191548047.637 6 148117044.401 7  36784793.945    36784785.145
 196307074.919 7 151797045.316 7  37698710.227    37698707.184
 207820976.094 6 160700391.291 6  39909834.773    39909839.520
 192530285.109 7 148876642.968 7  36973401.328    36973398.660
 196684913.082 6 152089312.625 6  37771269.742    37771266.469
 190117781.901 6 147011096.704 7  36510124.734    36510119.598
 191699707.823 7 148234338.533 7  36813915.734    36813909.582
 18  5 16  3  3 26.0000000  0 11C02C05C04C08C01C10C13C09C06C03C07
 195913747.642 6 151492899.014 7  37623181.734    37623176.695
 206765931.561 6 159884521.526 5  39707241.484    39707237.344
 197703577.648 6 152876916.029 6  37966898.867    37966894.320
 199145824.128 6 153992187.666 6  38243860.469    38243855.844
 191548029.217 6 148117030.156 7  36784790.664    36784781.648
 196307039.644 7 151797018.043 7  37698703.172    37698700.496
 207819482.707 6 160699236.509 6  39909547.828    39909552.988
 192531591.147 7 148877652.882 7  36973652.313    36973649.535
 196686489.293 6 152090531.445 6  37771573.164    37771569.176
 190117762.634 6 147011081.806 7  36510121.344    36510115.570
 191699564.963 7 148234228.068 7  36813888.289    36813881.973
 18  5 16  3  3 27.0000000  0 11C02C05C04C08C01C10C13C09C06C03C07
 195913738.796 6 151492892.176 7  37623179.984    37623175.020
 206765923.442 5 159884515.249 5  39707239.953    39707236.363
 197703567.990 6 152876908.558 7  37966896.938    37966892.242
 199144108.622 6 153990861.121 6  38243530.531    38243526.828
 191548010.785 6 148117015.905 7  36784786.859    36784778.160
 196307004.283 7 151796990.693 7  37698696.719    37698693.031
 207817989.263 6 160698081.683 6  39909261.094    39909266.086
 192532897.288 7 148878662.873 7  36973902.664    36973900.316
 196688065.492 6 152091750.266 6  37771875.430    37771871.875
 190117743.354 6 147011066.892 7  36510117.344    36510111.539
 191699421.989 7 148234117.521 7  36813861.211    36813854.637
 18  5 16  3  3 28.0000000  0 11C02C05C04C08C01C10C13C09C06C03C07
 195913730.200 6 151492885.524 7  37623178.523    37623173.418
 206765915.547 6 159884509.144 5  39707238.664    39707234.332
 197703558.546 6 152876901.257 7  37966895.195    37966890.867
 199142393.403 6 153989534.806 6  38243201.633    38243197.457
 191547992.549 6 148117001.802 7  36784783.359    36784774.727
 196306969.018 7 151796963.423 7  37698689.789    37698686.574
 207816495.931 6 160696926.940 6  39908973.766    39908979.301
 192534203.767 7 148879673.123 7  36974153.984    36974151.406
 196689641.943 6 152092969.281 6  37772178.383    37772174.656
 190117724.264 6 147011052.130 7  36510113.883    36510108.043
 191699279.148 7 148234007.067 7  36813833.414    36813826.785
 18  5 16  3  3 29.0000000  0 11C02C05C04C08C01C10C13C09C06C03C07
 195913721.666 6 151492878.922 7  37623176.711    37623171.922
 206765907.654 5 159884503.042 5  39707236.453    39707232.961
 197703549.160 6 152876894.000 6  37966893.398    37966888.934
 199140678.258 6 153988208.549 6  38242871.906    38242867.887
 191547974.382 6 148116987.760 7  36784780.258    36784771.102
 196306933.712 7 151796936.124 7  37698683.461    37698680.340
 207815002.677 6 160695772.261 6  39908687.586    39908692.660
 192535510.416 7 148880683.510 7  36974404.352    36974402.113
 196691218.498 6 152094188.368 6  37772480.570    37772477.277
 190117705.223 6 147011037.407 7  36510109.672    36510104.320
 191699136.260 7 148233896.580 7  36813806.438    36813799.770
 18  5 16  3  3 30.0000000  0 11C02C05C04C08C01C10C13C09C06C03C07
 195913712.859 6 151492872.113 7  37623174.656    37623170.305
 206765899.506 5 159884496.733 5  39707235.750    39707231.895
 197703539.476 6 152876886.514 6  37966891.539    37966887.105
 199138962.897 6 153986882.124 6  38242541.781    38242538.551
 191547955.933 6 148116973.490 7  36784776.438    36784767.727
 196306898.078 7 151796908.573 7  37698676.492    37698673.391
 207813509.070 6 160694617.311 6  39908400.344    39908405.438
 192536816.951 7 148881693.804 7  36974655.063    36974653.070
 196692794.841 6 152095407.292 6  37772783.859    37772780.227
 190117685.965 6 147011022.514 7  36510106.195    36510100.586
 191698993.022 7 148233785.812 7  36813778.375    36813772.148
 18  5 16  3  3 31.0000000  0 11C02C05C04C08C01C10C13C09C06C03C07
 195913704.361 6 151492865.543 7  37623173.508    37623168.738
 206765891.738 6 159884490.721 5  39707234.586    39707230.488
 197703530.151 6 152876879.302 6  37966889.570    37966885.273
 199137247.909 6 153985555.986 6  38242212.922    38242209.105
 191547937.838 6 148116959.491 7  36784772.617    36784764.320
 196306862.661 7 151796881.185 7  37698669.500    37698666.641
 207812015.789 6 160693462.621 6  39908113.703    39908118.664
 192538123.973 7 148882704.476 7  36974906.344    36974904.363
 196694371.575 6 152096626.515 6  37773086.672    37773082.840
 190117667.013 6 147011007.856 7  36510102.383    36510096.844
 191698850.060 7 148233675.272 7  36813750.938    36813744.813
 18  5 16  3  3 32.0000000  0 11C02C05C04C08C01C10C13C09C06C03C07
 195913695.663 6 151492858.813 7  37623171.844    37623166.680
 206765883.724 6 159884484.520 5  39707232.289    39707229.273
 197703520.624 6 152876871.931 6  37966887.461    37966883.125
 199135532.744 6 153984229.708 6  38241882.953    38241879.723
 191547919.508 6 148116945.314 7  36784769.141    36784760.645
 196306826.953 7 151796853.570 7  37698662.609    37698659.477
 207810522.286 6 160692307.749 6  39907827.109    39907831.895
 192539430.884 7 148883715.057 7  36975157.414    36975155.492
 196695948.142 6 152097845.613 6  37773389.148    37773386.367
 190117647.855 6 147010993.043 7  36510099.016    36510093.047
 191698706.748 7 148233564.447 7  36813723.703    36813716.949
 18  5 16  3  3 33.0000000  0 11C02C05C04C08C01C10C13C09C06C03C07
 195913687.239 6 151492852.296 7  37623170.086    37623165.160
 206765875.941 6 159884478.510 5  39707230.617    39707227.410
 197703511.396 6 152876864.789 6  37966886.188    37966881.531
 199133817.890 6 153982903.676 6  38241553.422    38241550.238
 191547901.488 6 148116931.383 7  36784765.859    36784757.168
 196306791.454 7 151796826.117 7  37698655.656    37698652.445
 207809028.996 6 160691153.037 6  39907540.391    39907545.270
 192540738.223 7 148884725.972 7  36975408.297    36975406.098
 196697524.996 6 152099064.935 6  37773692.242    37773688.586
 190117628.958 6 147010978.430 7  36510095.203    36510089.691
 191698563.651 7 148233453.797 7  36813696.031    36813689.750
 18  5 16  3  3 34.0000000  0 11C02C05C04C08C01C10C13C09C06C03C07
 195913678.455 6 151492845.512 7  37623168.156    37623163.258
 206765867.838 6 159884472.243 5  39707229.586    39707225.781
 197703501.763 6 152876857.342 6  37966884.523    37966879.656
 199132102.729 6 153981577.409 6  38241224.773    38241220.840
 191547883.078 6 148116917.149 7  36784762.469    36784753.719
 196306755.514 7 151796798.325 7  37698649.719    37698645.703
 207807535.283 6 160689998.006 6  39907253.102    39907258.277
 192542045.316 7 148885736.700 7  36975659.656    36975657.098
 196699101.569 7 152100284.046 6  37773995.063    37773991.723
 190117609.703 6 147010963.541 7  36510091.250    36510085.848
 191698420.112 7 148233342.804 7  36813668.578    36813662.340
 18  5 16  3  3 35.0000000  0 11C02C05C04C08C01C10C13C09C06C03C07
 195913669.582 6 151492838.648 7  37623166.773    37623161.520
 206765859.665 5 159884465.917 5  39707228.305    39707224.090
 197703492.049 6 152876849.829 6  37966882.617    37966877.863
 199130387.509 6 153980251.092 6  38240895.438    38240891.953
 191547864.594 6 148116902.856 7  36784759.281    36784750.141
 196306719.402 7 151796770.398 7  37698642.070    37698638.805
 207806041.465 6 160688842.889 6  39906965.945    39906971.234
 192543352.461 7 148886747.464 7  36975910.773    36975908.070
 196700678.091 6 152101503.110 6  37774297.406    37774294.516
 190117590.354 6 147010948.584 7  36510087.805    36510082.633
 191698276.368 7 148233231.645 7  36813641.023    36813634.652
 18  5 16  3  3 36.0000000  0 11C02C05C04C08C01C10C13C09C06C03C07
 195913660.901 6 151492831.936 7  37623165.117    37623160.164
 206765851.703 6 159884459.758 5  39707226.164    39707222.258
 197703482.564 6 152876842.500 6  37966880.766    37966875.758
 199128672.533 6 153978924.964 6  38240566.039    38240562.387
 191547846.326 6 148116888.725 7  36784755.313    36784746.191
 196306683.407 7 151796742.562 7  37698635.195    37698631.688
 207804547.832 6 160687687.915 6  39906679.047    39906684.637
 192544659.948 7 148887758.494 7  36976161.789    36976159.387
 196702254.875 6 152102722.379 6  37774600.531    37774596.867
 190117571.233 6 147010933.798 7  36510084.328    36510078.789
 191698132.781 7 148233120.611 7  36813613.406    36813606.836
 18  5 16  3  3 37.0000000  0 11C02C05C04C08C01C10C13C09C06C03C07
 195913652.165 6 151492825.176 7  37623163.125    37623158.078
 206765843.643 6 159884453.520 5  39707225.219    39707220.953
 197703473.016 6 152876835.114 6  37966879.016    37966874.207
 199126957.553 6 153977598.832 6  38240236.414    38240233.051
 191547828.005 6 148116874.559 7  36784751.836    36784743.227
 196306647.281 7 151796714.627 7  37698628.109    37698624.836
 207803054.114 6 160686532.875 6  39906392.039    39906397.949
 192545967.541 7 148888769.608 7  36976412.867    36976410.035
 196703831.653 6 152103941.642 6  37774902.977    37774900.113
 190117552.091 6 147010918.995 7  36510080.813    36510074.875
 191697989.020 7 148233009.449 7  36813585.813    36813579.578
 18  5 16  3  3 38.0000000  0 11C02C05C04C08C01C10C13C09C06C03C07
 195913643.551 6 151492818.517 7  37623162.227    37623156.668
 206765835.718 5 159884447.400 5  39707223.117    39707219.441
 197703463.551 6 152876827.799 6  37966876.836    37966872.313
 199125242.733 6 153976272.831 6  38239907.906    38239903.578
 191547809.784 6 148116860.471 7  36784747.898    36784739.547
 196306611.167 7 151796686.697 7  37698620.680    37698618.246
 207801560.498 6 160685377.920 6  39906105.281    39906111.324
 192547275.354 7 148889780.891 7  36976663.961    36976661.480
 196705408.583 6 152105161.029 6  37775205.789    37775202.664
 190117533.016 6 147010904.244 7  36510077.492    36510071.059
 191697845.328 7 148232898.343 7  36813558.367    36813551.832
 18  5 16  3  3 39.0000000  0 11C02C05C04C08C01C10C13C09C06C03C07
 195913634.705 6 151492811.677 7  37623160.359    37623155.285
 206765827.573 6 159884441.095 5  39707221.867    39707218.137
 197703453.924 6 152876820.348 6  37966875.195    37966870.285
 199123527.756 6 153974946.702 6  38239578.672    38239574.176
 191547791.365 6 148116846.229 7  36784744.516    36784735.934
 196306574.745 7 151796658.533 7  37698614.336    37698610.660
 207800066.638 6 160684222.774 6  39905818.609    39905824.172
 192548583.088 7 148890792.116 7  36976914.664    36976912.629
 196706985.376 6 152106380.302 6  37775508.734    37775505.438
 190117513.754 6 147010889.346 7  36510073.328    36510067.559
 191697701.317 7 148232786.984 7  36813530.406    36813524.031
 18  5 16  3  3 40.0000000  0 11C02C05C04C08C01C10C13C09C06C03C07
 195913625.787 6 151492804.779 7  37623158.617    37623153.367
 206765819.291 5 159884434.697 5  39707220.211    39707216.410
 197703444.156 6 152876812.793 6  37966873.313    37966868.918
 199121812.727 6 153973620.541 6  38239248.508    38239244.684
 191547772.878 6 148116831.935 7  36784741.164    36784732.512
 196306538.201 7 151796630.280 7  37698606.953    37698603.582
 207798572.648 6 160683067.523 6  39905532.031    39905537.656
 192549890.863 7 148891803.370 7  36977166.422    36977163.969
 196708562.092 6 152107599.514 6  37775811.586    37775808.395
 190117494.376 6 147010874.363 7  36510069.406    36510063.859
 191697557.119 7 148232675.478 7  36813502.789    36813496.695
 18  5 16  3  3 41.0000000  0 11C02C05C04C08C01C10C13C09C06C03C07
 195913617.180 6 151492798.127 7  37623156.672    37623151.625
 206765811.361 5 159884428.568 5  39707219.148    39707214.973
 197703434.745 6 152876805.516 6  37966871.719    37966867.172
 199120098.035 6 153972294.631 6  38238919.203    38238915.641
 191547754.669 6 148116817.858 7  36784737.789    36784729.414
 196306501.877 7 151796602.200 7  37698600.188    37698596.973
 207797078.943 6 160681912.495 6  39905244.969    39905250.520
 192551199.109 7 148892814.991 7  36977417.734    36977415.109
 196710139.189 6 152108819.023 6  37776114.492    37776111.293
 190117475.331 6 147010859.635 7  36510065.531    36510060.570
 191697413.158 7 148232564.153 7  36813475.125    36813468.957
 18  5 16  3  3 42.0000000  0 11C02C05C04C08C01C10C13C09C06C03C07
 195913608.284 6 151492791.247 7  37623155.383    37623149.750
 206765803.177 5 159884422.244 5  39707216.664    39707213.285
 197703425.095 6 152876798.055 6  37966869.695    37966864.816
 199118383.133 6 153970968.558 6  38238589.508    38238586.621
 191547736.240 6 148116803.606 7  36784734.102    36784725.305
 196306465.196 7 151796573.840 7  37698592.789    37698589.605
 207795584.939 6 160680757.245 6  39904958.516    39904963.492
 192552507.224 7 148893826.511 7  36977668.375    36977666.320
 196711716.080 6 152110038.375 6  37776417.406    37776413.715
 190117456.051 6 147010844.723 7  36510061.984    36510056.672
 191697268.860 7 148232452.578 7  36813447.445    36813440.930
 18  5 16  3  3 43.0000000  0 11C02C05C04C08C01C10C13C09C06C03C07
 195913599.545 6 151492784.484 7  37623153.500    37623148.344
 206765795.113 6 159884416.001 5  39707215.352    39707211.734
 197703415.522 6 152876790.652 6  37966867.648    37966862.926
 199116668.396 6 153969642.616 6  38238260.852    38238257.414
 191547717.927 6 148116789.446 7  36784730.414    36784721.898
 196306428.546 7 151796545.500 7  37698585.883    37698582.617
 207794091.009 6 160679602.044 6  39904670.938    39904676.555
 192553815.582 7 148894838.220 7  36977919.836    36977917.508
 196713293.131 6 152111257.852 6  37776720.234    37776716.789
 190117436.863 6 147010829.888 7  36510058.234    36510052.813
 191697124.603 7 148232341.023 7  36813419.898    36813413.250
 18  5 16  3  3 44.0000000  0 11C02C05C04C08C01C10C13C09C06C03C07
 195913590.827 6 151492777.744 7  37623152.086    37623146.469
 206765787.124 6 159884409.817 5  39707214.109    39707210.285
 197703406.035 6 152876783.323 6  37966866.125    37966861.340
 199114953.769 6 153968316.765 6  38237931.109    38237927.770
 191547699.657 6 148116775.314 7  36784727.219    36784718.371
 196306391.897 7 151796517.153 7  37698579.023    37698575.773
 207792597.126 6 160678446.883 6  39904383.531    39904389.957
 192555124.106 7 148895850.050 7  36978171.055    36978168.824
 196714870.262 6 152112477.388 6  37777022.539    37777020.105
 190117417.743 6 147010815.104 7  36510054.742    36510048.984
 191696980.291 7 148232229.422 7  36813392.422    36813385.707
 18  5 16  3  3 45.0000000  0 11C02C05C04C08C01C10C13C09C06C03C07
 195913582.084 6 151492770.989 7  37623150.227    37623144.660
 206765779.084 5 159884403.596 5  39707212.672    39707208.891
 197703396.451 6 152876775.905 6  37966864.141    37966859.492
 199113239.125 6 153966990.885 6  38237601.898    38237598.672
 191547681.338 6 148116761.144 7  36784723.625    36784714.914
 196306355.109 7 151796488.701 7  37698571.938    37698568.848
 207791103.098 6 160677291.600 6  39904097.180    39904102.949
 192556432.735 7 148896861.956 7  36978422.688    36978420.172
 196716447.442 6 152113696.962 6  37777326.219    37777322.516
 190117398.595 6 147010800.299 7  36510051.016    36510045.254
 191696835.860 7 148232117.741 7  36813364.711    36813357.719
 18  5 16  3  3 46.0000000  0 11C02C05C04C08C01C10C13C09C06C03C07
 195913573.243 6 151492764.149 7  37623148.164    37623143.016
 206765770.944 5 159884397.290 5  39707210.914    39707207.707
 197703386.851 6 152876768.483 6  37966862.289    37966857.570
 199111524.489 6 153965665.007 6  38237272.813    38237269.578
 191547662.963 6 148116746.937 7  36784719.773    36784711.492
 196306318.171 7 151796460.133 7  37698564.953    37698561.852
 207789609.012 6 160676136.279 6  39903810.727    39903816.363
 192557741.446 7 148897873.930 7  36978673.773    36978671.352
 196718024.565 6 152114916.495 6  37777628.727    37777625.648
 190117379.344 6 147010785.412 7  36510046.938    36510041.348
 191696691.276 7 148232005.937 7  36813336.484    36813330.410
 18  5 16  3  3 47.0000000  0 11C02C05C04C08C01C10C13C09C06C03C07
 195913564.510 6 151492757.391 7  37623145.984    37623141.430
 206765762.897 6 159884391.063 5  39707209.461    39707205.801
 197703377.306 6 152876761.100 6  37966860.680    37966855.879
 199109809.922 6 153964339.191 6  38236943.719    38236940.055
 191547644.644 6 148116732.774 7  36784716.102    36784707.945
 196306281.195 7 151796431.541 7  37698557.578    37698554.625
 207788114.968 6 160674980.987 6  39903523.906    39903529.129
 192559050.327 7 148898886.041 7  36978924.953    36978922.867
 196719601.837 6 152116136.134 6  37777931.836    37777928.512
 190117360.191 6 147010770.602 7  36510043.570    36510038.148
 191696546.651 7 148231894.102 7  36813308.805    36813302.668
 18  5 16  3  3 48.0000000  0 11C02C05C04C08C01C10C13C09C06C03C07
 195913555.631 6 151492750.529 7  37623144.828    37623139.359
 206765754.760 6 159884384.773 5  39707207.625    39707204.258
 197703367.644 6 152876753.634 7  37966858.594    37966853.965
 199108095.269 6 153963013.315 6  38236614.297    38236610.559
 191547626.239 6 148116718.541 7  36784713.023    36784704.152
 196306244.025 7 151796402.798 7  37698550.602    37698547.344
 207786620.768 6 160673825.579 6  39903236.555    39903242.277
 192560359.273 7 148899898.203 7  36979175.836    36979174.434
 196721179.038 6 152117355.719 6  37778234.742    37778231.434
 190117340.937 6 147010755.711 7  36510039.867    36510034.277
 191696401.844 7 148231782.129 7  36813280.891    36813274.594
 18  5 16  3  3 49.0000000  0 11C02C05C04C08C01C10C13C09C06C03C07
 195913546.720 6 151492743.638 7  37623143.219    37623137.906
 206765746.508 6 159884378.404 5  39707206.313    39707202.449
 197703357.951 6 152876746.139 6  37966856.672    37966851.871
 199106380.629 6 153961687.447 6  38236285.016    38236281.355
 191547607.788 6 148116704.271 7  36784709.750    36784700.777
 196306206.736 7 151796373.963 7  37698543.211    37698540.289
 207785126.467 6 160672670.091 6  39902949.633    39902955.523
 192561668.284 7 148900910.413 7  36979427.500    36979425.426
 196722756.230 6 152118575.307 6  37778537.414    37778534.148
 190117321.621 6 147010740.777 7  36510036.516    36510030.543
 191696256.930 7 148231670.070 7  36813253.109    36813246.938
 18  5 16  3  3 50.0000000  0 11C02C05C04C08C01C10C13C09C06C03C07
 195913538.000 6 151492736.893 7  37623141.375    37623136.172
 206765738.442 6 159884372.173 5  39707204.961    39707200.977
 197703348.426 6 152876738.776 6  37966854.789    37966850.266
 199104666.164 6 153960361.717 6  38235955.477    38235951.922
 191547589.504 6 148116690.138 7  36784705.977    36784697.277
 196306169.539 7 151796345.209 7  37698536.031    37698533.402
 207783632.339 6 160671514.734 6  39902662.422    39902668.465
 192562977.621 7 148901922.870 7  36979678.766    36979677.039
 196724333.649 6 152119795.061 6  37778840.594    37778837.352
 190117302.492 6 147010725.986 7  36510033.227    36510026.957
 191696112.078 7 148231558.056 7  36813225.055    36813219.156
 18  5 16  3  3 51.0000000  0 11C02C05C04C08C01C10C13C09C06C03C07
 195913529.048 6 151492729.969 7  37623139.828    37623135.012
 206765730.258 5 159884365.846 5  39707203.000    39707199.313
 197703338.736 6 152876731.286 6  37966852.805    37966848.367
 199102951.618 6 153959035.929 6  38235625.961    38235622.574
 191547571.052 6 148116675.869 7  36784702.242    36784693.754
 196306132.065 7 151796316.231 7  37698528.969    37698526.078
 207782138.012 6 160670359.224 6  39902375.555    39902381.422
 192564286.903 7 148902935.288 7  36979930.609    36979928.570
 196725910.951 6 152121014.728 6  37779143.320    37779140.066
 190117283.176 6 147010711.048 7  36510029.023    36510023.367
 191695966.991 7 148231445.870 7  36813197.523    36813191.133
 18  5 16  3  3 52.0000000  0 11C02C05C04C08C01C10C13C09C06C03C07
 195913520.424 6 151492723.301 7  37623138.094    37623133.355
 206765722.303 6 159884359.698 5  39707201.914    39707198.129
 197703329.308 6 152876723.993 6  37966851.070    37966846.496
 199101237.392 6 153957710.388 6  38235297.227    38235293.676
 191547552.867 6 148116661.811 7  36784698.805    36784690.672
 196306094.765 7 151796287.391 7  37698521.508    37698518.781
 207780643.885 6 160669203.872 6  39902088.430    39902094.445
 192565596.549 7 148903947.982 7  36980181.945    36980180.156
 196727488.550 6 152122234.621 6  37779446.250    37779443.254
 190117264.134 6 147010696.322 7  36510025.563    36510019.672
 191695822.055 7 148231333.798 7  36813169.289    36813163.027
 18  5 16  3  3 53.0000000  0 11C02C05C04C08C01C10C13C09C06C03C07
 195913511.488 6 151492716.395 7  37623136.438    37623131.484
 206765714.106 6 159884353.359 5  39707200.320    39707196.172
 197703319.597 6 152876716.482 6  37966849.563    37966845.070
 199099522.950 6 153956384.668 6  38234967.648    38234964.188
 191547534.439 6 148116647.560 7  36784695.523    36784687.035
 196306057.188 7 151796258.333 7  37698514.523    37698511.809
 207779149.486 6 160668048.309 6  39901801.492    39901807.340
 192566906.121 7 148904960.628 7  36980433.609    36980431.328
 196729065.933 6 152123454.356 6  37779748.984    37779745.855
 190117244.852 6 147010681.414 7  36510021.836    36510015.809
 191695676.780 7 148231221.457 7  36813142.063    36813135.637
 18  5 16  3  3 54.0000000  0 11C02C05C04C08C01C10C13C09C06C03C07
 195913502.726 6 151492709.618 7  37623134.750    37623129.676
 206765706.021 6 159884347.111 5  39707198.711    39707194.887
 197703310.097 6 152876709.131 6  37966847.148    37966843.055
 199097808.659 6 153955059.071 6  38234638.375    38234634.887
 191547516.160 6 148116633.420 7  36784692.328    36784683.414
 196306019.622 7 151796229.278 7  37698507.383    37698504.602
 207777655.203 6 160666892.837 6  39901514.563    39901520.656
 192568215.957 7 148905973.473 7  36980684.906    36980683.102
 196730643.534 6 152124674.252 6  37780052.102    37780048.953
 190117225.734 6 147010666.632 7  36510017.859    36510012.211
 191695531.580 7 148231109.178 7  36813113.633    36813107.520
 18  5 16  3  3 55.0000000  0 11C02C05C04C08C01C10C13C09C06C03C07
 195913493.867 6 151492702.769 7  37623133.211    37623127.836
 206765697.852 5 159884340.793 5  39707196.547    39707193.031
 197703300.448 6 152876701.664 6  37966845.719    37966841.063
 199096094.330 6 153953733.446 6  38234309.289    38234306.012
 191547497.772 6 148116619.205 7  36784688.492    36784679.820
 196305981.885 7 151796200.092 7  37698500.461    37698496.973
 207776160.792 6 160665737.267 6  39901227.844    39901233.531
 192569525.830 7 148906986.356 7  36980936.500    36980934.422
 196732221.060 6 152125894.089 6  37780355.242    37780352.137
 190117206.496 6 147010651.750 7  36510013.906    36510008.719
 191695386.176 7 148230996.736 7  36813085.813    36813079.398
 18  5 16  3  3 56.0000000  0 11C02C05C04C08C01C10C13C09C06C03C07
 195913485.174 6 151492696.049 7  37623131.008    37623126.332
 206765689.842 5 159884334.592 5  39707196.063    39707191.367
 197703290.981 6 152876694.349 6  37966843.914    37966838.793
 199094380.199 6 153952407.965 6  38233979.555    38233976.805
 191547479.552 6 148116605.108 7  36784684.922    36784675.961
 196305944.223 7 151796170.976 7  37698492.922    37698489.789
 207774666.524 6 160664581.800 6  39900941.523    39900946.836
 192570835.959 7 148907999.427 7  36981188.195    36981185.855
 196733798.813 6 152127114.114 6  37780657.750    37780654.457
 190117187.413 6 147010636.995 7  36510010.570    36510005.098
 191695240.863 7 148230884.372 7  36813058.016    36813051.813
 18  5 16  3  3 57.0000000  0 11C02C05C04C08C01C10C13C09C06C03C07
 195913476.351 6 151492689.220 7  37623129.672    37623124.906
 206765681.755 5 159884328.338 5  39707194.023    39707190.066
 197703281.391 6 152876686.931 6  37966841.938    37966837.324
 199092666.005 6 153951082.435 6  38233650.906    38233647.691
 191547461.229 6 148116590.941 7  36784681.234    36784672.555
 196305906.387 7 151796141.713 7  37698485.656    37698482.648
 207773172.115 6 160663426.225 6  39900653.953    39900659.734
 192572146.154 7 148909012.551 7  36981440.250    36981437.262
 196735376.518 6 152128334.092 6  37780961.000    37780957.473
 190117168.215 6 147010622.150 7  36510006.797    36510001.152
 191695095.357 7 148230771.857 7  36813030.398    36813023.793
 18  5 16  3  3 58.0000000  0 11C02C05C04C08C01C10C13C09C06C03C07
 195913467.524 6 151492682.392 7  37623127.609    37623122.934
 206765673.586 5 159884322.018 5  39707192.109    39707188.273
 197703271.766 6 152876679.492 6  37966840.305    37966835.180
 199090951.828 6 153949756.929 6  38233321.867    38233318.031
 191547442.894 6 148116576.765 7  36784677.664    36784668.879
 196305868.398 7 151796112.339 7  37698478.453    37698475.313
 207771677.642 6 160662270.609 6  39900366.984    39900372.406
 192573456.451 7 148910025.758 7  36981691.813    36981689.074
 196736954.211 6 152129554.055 6  37781264.273    37781260.602
 190117149.025 6 147010607.309 7  36510003.109    36509997.465
 191694949.729 7 148230659.252 7  36813001.992    36812995.566
 18  5 16  3  3 59.0000000  0 11C02C05C04C08C01C10C13C09C06C03C07
 195913458.684 6 151492675.556 7  37623125.953    37623121.250
 206765665.490 5 159884315.760 5  39707190.664    39707186.922
 197703262.219 6 152876672.112 6  37966838.438    37966833.602
 199089237.708 6 153948431.466 6  38232993.125    38232989.145
 191547424.577 6 148116562.597 7  36784674.313    36784665.496
 196305830.422 7 151796082.974 7  37698470.648    37698468.066
 207770183.097 6 160661114.929 6  39900079.781    39900085.906
 192574766.916 7 148911039.092 7  36981943.227    36981940.770
 196738532.011 6 152130774.106 6  37781567.680    37781563.363
 190117129.826 6 147010592.467 7  36509999.820    36509993.992
 191694804.045 7 148230546.601 7  36812974.672    36812967.727
 18  5 16  3  4  0.0000000  0 11C02C05C04C08C01C10C13C09C06C03C07
 195913449.851 6 151492668.734 7  37623124.594    37623119.543
 206765657.341 6 159884309.466 5  39707189.055    39707185.023
 197703252.537 6 152876664.621 6  37966836.617    37966831.484
 199087523.614 6 153947106.024 6  38232663.797    38232659.961
 191547406.192 6 148116548.383 7  36784670.961    36784662.117
 196305792.261 7 151796053.464 7  37698463.539    37698460.879
 207768688.526 6 160659959.234 6  39899792.531    39899798.641
 192576077.426 7 148912052.458 7  36982194.914    36982192.973
 196740109.766 6 152131994.129 6  37781870.078    37781866.258
 190117110.584 6 147010577.584 7  36509995.797    36509990.078
 191694658.217 7 148230433.838 7  36812946.281    36812939.938
 18  5 16  3  4  1.0000000  0 11C02C05C04C08C01C10C13C09C06C03C07
 195913440.849 6 151492661.772 7  37623122.742    37623117.898
 206765649.088 5 159884303.082 5  39707187.570    39707183.945
 197703242.820 6 152876657.107 6  37966834.797    37966829.711
 199085809.420 6 153945780.503 6  38232334.969    38232330.629
 191547387.742 6 148116534.113 7  36784667.406    36784658.539
 196305753.932 6 151796023.821 7  37698456.117    37698453.672
 207767193.846 6 160658803.455 6  39899505.414    39899511.594
 192577388.013 7 148913065.885 7  36982446.438    36982444.230
 196741687.515 6 152133214.145 6  37782173.086    37782169.266
 190117091.274 6 147010562.654 7  36509991.664    36509986.547
 191694512.205 7 148230320.931 7  36812917.977    36812911.965
 18  5 16  3  4  2.0000000  0 11C02C05C04C08C01C10C13C09C06C03C07
 195913431.985 6 151492654.919 7  37623121.195    37623116.180
 206765640.949 6 159884296.784 5  39707186.414    39707182.004
 197703233.246 6 152876649.702 6  37966832.680    37966828.133
 199084095.443 6 153944455.142 6  38232004.891    38232001.480
 191547369.405 6 148116519.942 7  36784663.789    36784655.039
 196305715.643 7 151795994.206 7  37698448.703    37698445.961
 207765699.244 6 160657647.735 6  39899218.477    39899224.148
 192578698.854 7 148914079.506 7  36982698.102    36982696.125
 196743265.408 6 152134434.274 6  37782475.828    37782472.523
 190117072.078 6 147010547.813 7  36509988.750    36509982.773
 191694366.257 7 148230208.070 7  36812890.031    36812883.977
 18  5 16  3  4  3.0000000  0 11C02C05C04C08C01C10C13C09C06C03C07
 195913423.205 6 151492648.126 7  37623119.852    37623114.535
 206765632.846 6 159884290.513 5  39707184.836    39707180.461
 197703223.647 6 152876642.276 6  37966830.813    37966826.273
 199082381.522 6 153943129.834 6  38231676.383    38231672.203
 191547351.092 6 148116505.775 7  36784660.383    36784651.441
 196305677.277 7 151795964.538 7  37698441.367    37698438.254
 207764204.559 6 160656491.952 6  39898931.414    39898936.973
 192580009.867 7 148915093.268 7  36982949.758    36982947.645
 196744843.387 6 152135654.460 6  37782779.273    37782775.828
 190117052.898 6 147010532.980 7  36509984.813    36509979.387
 191694220.235 7 148230095.164 7  36812861.867    36812855.430
 18  5 16  3  4  4.0000000  0 11C02C05C04C08C01C10C13C09C06C03C07
 195913414.302 6 151492641.238 7  37623117.813    37623112.652
 206765624.647 6 159884284.171 5  39707182.945    39707178.973
 197703214.037 6 152876634.844 6  37966828.563    37966824.355
 199080667.539 6 153941804.468 6  38231346.742    38231343.367
 191547332.719 6 148116491.571 7  36784656.500    36784647.945
 196305638.795 6 151795934.785 7  37698434.227    37698431.180
 207762709.858 6 160655336.161 6  39898644.133    39898650.531
 192581320.889 7 148916107.029 7  36983201.641    36983199.465
 196746421.361 6 152136874.652 6  37783082.023    37783079.035
 190117033.683 6 147010518.125 7  36509981.164    36509975.570
 191694074.037 7 148229982.115 7  36812834.008    36812827.754
 18  5 16  3  4  5.0000000  0 11C02C05C04C08C01C10C13C09C06C03C07
 195913405.605 6 151492634.508 7  37623116.133    37623110.926
 206765616.706 6 159884278.033 5  39707181.031    39707177.813
 197703204.580 6 152876627.533 6  37966826.930    37966822.461
 199078953.849 6 153940479.343 6  38231017.734    38231014.133
 191547314.559 6 148116477.524 7  36784653.266    36784644.418
 196305600.430 7 151795905.121 7  37698426.813    37698423.668
 207761215.313 6 160654180.482 6  39898357.430    39898363.410
 192582632.329 7 148917121.117 7  36983453.664    36983451.426
 196747999.559 6 152138095.014 6  37783385.461    37783381.941
 190117014.690 6 147010503.438 7  36509977.313    36509971.984
 191693927.979 7 148229869.177 7  36812805.859    36812799.379
 18  5 16  3  4  6.0000000  0 11C02C05C04C08C01C10C13C09C06C03C07
 195913396.823 6 151492627.712 7  37623114.539    37623109.406
 206765608.592 5 159884271.748 5  39707179.688    39707175.813
 197703195.097 6 152876620.200 6  37966825.547    37966820.559
 199077240.054 6 153939154.135 6  38230688.492    38230685.004
 191547296.293 6 148116463.402 7  36784649.641    36784641.086
 196305561.860 7 151795875.297 7  37698419.484    37698416.527
 207759720.602 6 160653024.680 6  39898070.305    39898076.531
 192583943.745 7 148918135.184 7  36983705.469    36983703.223
 196749577.714 6 152139315.335 6  37783688.203    37783684.797
 190116995.547 6 147010488.636 7  36509974.008    36509968.203
 191693781.724 7 148229756.089 7  36812778.000    36812771.434
 18  5 16  3  4  7.0000000  0 11C02C05C04C08C01C10C13C09C06C03C07
 195913387.993 6 151492620.887 7  37623112.523    37623107.406
 206765600.448 5 159884265.460 5  39707178.633    39707174.246
 197703185.463 6 152876612.757 6  37966823.320    37966818.828
 199075526.262 6 153937828.922 6  38230359.828    38230355.934
 191547277.986 6 148116449.248 7  36784646.203    36784637.457
 196305523.163 6 151795845.375 7  37698411.563    37698408.957
 207758225.849 6 160651868.839 6  39897783.461    39897789.637
 192585255.236 7 148919149.313 7  36983957.203    36983955.035
 196751155.844 6 152140535.644 6  37783991.320    37783988.070
 190116976.376 6 147010473.809 7  36509970.336    36509964.320
 191693635.323 7 148229642.879 7  36812749.883    36812743.516
 18  5 16  3  4  8.0000000  0 11C02C05C04C08C01C10C13C09C06C03C07
 195913379.139 6 151492614.043 7  37623111.203    37623105.832
 206765592.365 6 159884259.215 5  39707177.148    39707172.613
 197703175.893 6 152876605.354 6  37966821.945    37966817.043
 199073812.544 6 153936503.765 6  38230030.992    38230026.898
 191547259.684 6 148116435.094 7  36784642.938    36784634.063
 196305484.393 7 151795815.396 7  37698404.367    37698401.414
 207756731.039 6 160650712.955 6  39897496.602    39897502.473
 192586566.897 7 148920163.570 7  36984208.766    36984206.691
 196752734.091 6 152141756.045 6  37784294.094    37784291.035
 190116957.215 6 147010458.993 7  36509965.930    36509960.285
 191693488.875 7 148229529.630 7  36812721.320    36812715.164
 18  5 16  3  4  9.0000000  0 11C02C05C04C08C01C10C13C09C06C03C07
 195913370.296 6 151492607.210 7  37623109.953    37623104.289
 206765584.248 6 159884252.937 5  39707176.086    39707170.941
 197703166.351 6 152876597.978 6  37966819.883    37966815.715
 199072098.843 6 153935178.626 6  38229700.875    38229698.000
 191547241.400 6 148116420.958 7  36784639.242    36784630.289
 196305445.525 6 151795785.333 7  37698397.063    37698394.020
 207755236.210 6 160649557.058 6  39897209.227    39897215.348
 192587878.661 7 148921177.911 7  36984460.953    36984458.781
 196754312.328 6 152142976.429 6  37784597.352    37784594.609
 190116938.064 6 147010444.180 7  36509962.766    36509956.926
 191693342.306 7 148229416.290 7  36812693.156    36812687.066
 18  5 16  3  4 10.0000000  0 11C02C05C04C08C01C10C13C09C06C03C07
 195913361.315 6 151492600.268 7  37623107.961    37623102.820
 206765575.971 6 159884246.536 5  39707173.953    39707169.332
 197703156.654 6 152876590.477 6  37966818.188    37966813.613
 199070385.100 6 153933853.458 6  38229372.047    38229368.664
 191547223.000 6 148116406.729 7  36784635.664    36784626.746
 196305406.503 6 151795755.159 7  37698389.672    37698386.469
 207753741.213 6 160648401.024 6  39896921.531    39896927.914
 192589190.483 7 148922192.289 7  36984713.086    36984710.832
 196755890.535 6 152144196.798 6  37784900.469    37784897.117
 190116918.800 6 147010429.281 7  36509958.766    36509953.438
 191693195.551 7 148229302.798 7  36812665.438    36812659.102
 18  5 16  3  4 11.0000000  0 11C02C05C04C08C01C10C13C09C06C03C07
 195913352.793 6 151492593.674 7  37623105.953    37623100.859
 206765568.146 5 159884240.482 5  39707172.250    39707167.813
 197703147.387 6 152876583.317 6  37966816.398    37966812.074
 199068671.825 6 153932528.633 6  38229043.594    38229040.020
 191547205.009 6 148116392.811 7  36784632.391    36784623.582
 196305367.753 6 151795725.191 7  37698382.602    37698379.211
 207752246.634 6 160647245.333 6  39896634.969    39896641.145
 192590502.840 7 148923207.090 7  36984965.469    36984962.609
 196757469.183 6 152145417.502 6  37785203.750    37785200.477
 190116899.956 6 147010414.710 7  36509955.109    36509949.840
 191693049.139 7 148229189.585 7  36812637.141    36812630.949
 18  5 16  3  4 12.0000000  0 11C02C05C04C08C01C10C13C09C06C03C07
 195913344.019 6 151492586.886 7  37623104.594    37623099.605
 206765560.050 6 159884234.222 5  39707170.531    39707166.148
 197703137.892 6 152876575.963 6  37966814.758    37966810.270
 199066958.322 6 153931203.637 6  38228714.875    38228711.070
 191547186.793 6 148116378.724 7  36784628.805    36784619.859
 196305328.715 7 151795695.002 7  37698374.789    37698371.520
 207750751.752 6 160646089.397 6  39896347.844    39896354.305
 192591815.041 7 148924221.769 7  36985216.703    36985214.816
 196759047.639 6 152146638.066 6  37785506.594    37785503.289
 190116880.856 6 147010399.944 7  36509951.477    36509946.219
 191692902.381 7 148229076.105 7  36812608.602    36812602.785
 18  5 16  3  4 13.0000000  0 11C02C05C04C08C01C10C13C09C06C03C07
 195913335.265 6 151492580.115 7  37623102.617    37623097.375
 206765552.073 5 159884228.057 5  39707168.414    39707164.719
 197703128.422 6 152876568.640 6  37966812.375    37966808.352
 199065244.889 6 153929878.701 6  38228385.539    38228381.402
 191547168.625 6 148116364.672 7  36784625.273    36784616.477
 196305289.636 7 151795664.791 7  37698367.094    37698364.156
 207749256.882 6 160644933.470 6  39896060.672    39896067.145
 192593127.450 7 148925236.609 7  36985468.742    36985466.461
 196760626.186 7 152147858.702 6  37785809.664    37785806.359
 190116861.813 6 147010385.220 7  36509947.813    36509942.586
 191692755.598 7 148228962.597 7  36812580.547    36812574.488
 18  5 16  3  4 14.0000000  0 11C02C05C04C08C01C10C13C09C06C03C07
 195913326.486 6 151492573.330 7  37623100.961    37623095.758
 206765544.014 6 159884221.821 5  39707166.945    39707162.996
 197703118.920 6 152876561.289 6  37966810.859    37966806.391
 199063531.519 6 153928553.817 6  38228055.781    38228052.418
 191547150.427 6 148116350.600 7  36784621.477    36784613.141
 196305250.468 7 151795634.509 7  37698359.789    37698356.695
 207747761.943 6 160643777.494 6  39895774.164    39895779.922
 192594439.985 7 148926251.538 7  36985720.969    36985718.777
 196762204.769 6 152149079.358 6  37786112.789    37786109.559
 190116842.744 6 147010370.470 7  36509944.422    36509938.496
 191692608.704 7 148228849.013 7  36812552.836    36812546.250
 18  5 16  3  4 15.0000000  0 11C02C05C04C08C01C10C13C09C06C03C07
 195913317.595 6 151492566.453 7  37623099.328    37623093.648
 206765535.855 6 159884215.511 5  39707165.523    39707161.707
 197703109.313 6 152876553.860 6  37966809.445    37966804.520
 199061818.054 6 153927228.857 6  38227727.188    38227723.113
 191547132.106 6 148116336.431 7  36784617.938    36784609.625
 196305211.037 6 151795604.020 7  37698351.906    37698349.102
 207746266.868 6 160642621.400 6  39895486.766    39895492.441
 192595752.517 7 148927266.465 7  36985973.438    36985970.684
 196763783.269 6 152150299.949 6  37786416.430    37786413.027
 190116823.564 6 147010355.639 7  36509940.641    36509934.910
 191692461.598 7 148228735.259 7  36812524.180    36812517.953
 18  5 16  3  4 16.0000000  0 11C02C05C04C08C01C10C13C09C06C03C07
 195913308.828 6 151492559.672 7  37623097.977    37623092.055
 206765527.772 6 159884209.257 5  39707164.055    39707160.180
 197703099.831 6 152876546.527 6  37966806.930    37966802.570
 199060104.742 6 153925904.015 6  38227398.500    38227394.090
 191547113.882 6 148116322.345 7  36784614.805    36784605.980
 196305171.690 6 151795573.589 7  37698343.914    37698341.699
 207744771.918 6 160641465.404 6  39895199.844    39895205.594
 192597065.303 7 148928281.597 7  36986225.672    36986222.949
 196765361.910 6 152151520.652 6  37786719.609    37786716.164
 190116804.500 6 147010340.897 7  36509937.023    36509931.469
 191692314.517 7 148228621.529 7  36812495.781    36812489.895
 18  5 16  3  4 17.0000000  0 11C02C05C04C08C01C10C13C09C06C03C07
 195913300.053 6 151492552.888 7  37623096.102    37623090.605
 206765519.688 5 159884203.002 5  39707163.406    39707159.035
 197703090.332 6 152876539.184 6  37966805.164    37966800.531
 199058391.474 6 153924579.215 6  38227069.422    38227065.309
 191547095.646 6 148116308.245 7  36784611.242    36784602.621
 196305132.202 7 151795543.058 7  37698336.758    37698333.977
 207743276.868 6 160640309.333 6  39894912.891    39894918.473
 192598378.210 7 148929296.819 7  36986477.766    36986475.035
 196766940.629 6 152152741.418 6  37787022.188    37787019.086
 190116785.410 6 147010326.133 7  36509933.414    36509927.617
 191692167.322 7 148228507.711 7  36812468.203    36812461.980
 18  5 16  3  4 18.0000000  0 11C02C05C04C08C01C10C13C09C06C03C07
 195913291.175 6 151492546.018 7  37623094.719    37623089.211
 206765511.555 5 159884196.706 5  39707161.750    39707157.461
 197703080.770 6 152876531.788 6  37966803.516    37966798.551
 199056678.156 6 153923254.375 6  38226740.055    38226735.980
 191547077.424 6 148116294.157 7  36784607.719    36784599.102
 196305092.599 7 151795512.431 7  37698329.352    37698326.340
 207741781.733 6 160639153.200 6  39894625.508    39894631.871
 192599691.173 7 148930312.083 7  36986729.641    36986727.473
 196768519.292 7 152153962.138 6  37787325.617    37787322.355
 190116766.273 6 147010311.337 7  36509930.031    36509924.156
 191692020.002 7 148228393.794 7  36812439.516    36812433.563
 18  5 16  3  4 19.0000000  0 11C02C05C04C08C01C10C13C09C06C03C07
 195913282.313 6 151492539.168 7  37623092.789    37623087.133
 206765503.450 5 159884190.441 5  39707159.164    39707156.055
 197703071.244 6 152876524.423 6  37966801.547    37966797.035
 199054964.876 6 153921929.554 6  38226411.484    38226407.449
 191547059.141 6 148116280.016 7  36784604.430    36784595.758
 196305052.906 7 151795481.738 7  37698321.711    37698318.824
 207740286.570 6 160637997.051 6  39894338.789    39894344.535
 192601004.307 7 148931327.482 7  36986981.930    36986979.449
 196770098.045 6 152155182.927 6  37787628.891    37787625.438
 190116747.165 6 147010296.563 7  36509925.844    36509920.551
 191691872.581 7 148228279.797 7  36812411.453    36812405.008
 18  5 16  3  4 20.0000000  0 11C02C05C04C08C01C10C13C09C06C03C07
 195913273.366 6 151492532.253 7  37623090.563    37623085.391
 206765495.217 5 159884184.077 5  39707158.063    39707154.684
 197703061.582 6 152876516.956 6  37966800.078    37966795.258
 199053251.621 6 153920604.756 6  38226082.320    38226078.461
 191547040.826 6 148116265.857 7  36784600.828    36784591.754
 196305013.092 7 151795450.951 7  37698313.820    37698311.348
 207738791.335 6 160636840.847 6  39894051.273    39894057.406
 192602317.474 7 148932342.907 7  36987234.102    36987231.758
 196771676.728 6 152156403.660 6  37787932.055    37787928.570
 190116727.963 6 147010281.714 7  36509922.508    36509916.742
 191691725.014 7 148228165.689 7  36812382.898    36812376.980
 18  5 16  3  4 21.0000000  0 11C02C05C04C08C01C10C13C09C06C03C07
 195913264.525 6 151492525.421 7  37623088.930    37623084.051
 206765487.053 5 159884177.765 5  39707156.617    39707152.934
 197703052.019 6 152876509.557 6  37966798.516    37966793.176
 199051538.409 6 153919279.982 6  38225753.164    38225749.840
 191547022.501 6 148116251.694 7  36784596.930    36784588.258
 196304973.175 7 151795420.084 7  37698306.172    37698303.215
 207737296.070 6 160635684.615 6  39893764.359    39893769.879
 192603630.830 7 148933358.475 7  36987486.242    36987483.750
 196773255.529 6 152157624.485 6  37788235.234    37788231.676
 190116708.822 6 147010266.912 7  36509918.867    36509912.918
 191691577.427 7 148228051.559 7  36812354.625    36812348.301
 18  5 16  3  4 22.0000000  0 11C02C05C04C08C01C10C13C09C06C03C07
 195913255.690 6 151492518.580 7  37623087.453    37623082.164
 206765478.975 6 159884171.517 5  39707154.852    39707151.082
 197703042.490 6 152876502.194 6  37966796.750    37966791.441
 199049825.334 6 153917955.328 6  38225423.883    38225420.262
 191547004.300 6 148116237.618 7  36784593.688    36784584.898
 196304933.239 7 151795389.199 7  37698298.641    37698295.715
 207735800.868 6 160634528.423 6  39893477.469    39893483.129
 192604944.383 7 148934374.195 7  36987738.594    36987736.078
 196774834.440 6 152158845.403 6  37788538.461    37788535.117
 190116689.734 6 147010252.152 7  36509915.422    36509909.352
 191691429.773 7 148227937.385 7  36812326.539    36812319.879
 18  5 16  3  4 23.0000000  0 11C02C05C04C08C01C10C13C09C06C03C07
 195913246.814 6 151492511.720 7  37623085.227    37623080.531
 206765470.853 6 159884165.240 5  39707153.664    39707149.512
 197703032.929 6 152876494.799 6  37966794.500    37966789.652
 199048112.226 6 153916630.646 6  38225094.828    38225091.672
 191546986.058 6 148116223.508 7  36784590.359    36784581.426
 196304893.220 7 151795358.258 7  37698290.336    37698288.113
 207734305.577 6 160633372.168 6  39893190.578    39893195.977
 192606258.026 7 148935389.992 7  36987991.211    36987988.457
 196776413.395 6 152160066.345 6  37788841.922    37788838.133
 190116670.628 6 147010237.378 7  36509911.008    36509905.570
 191691282.031 7 148227823.138 7  36812297.703    36812291.438
 18  5 16  3  4 24.0000000  0 11C02C05C04C08C01C10C13C09C06C03C07
 195913238.017 6 151492504.918 7  37623083.945    37623078.793
 206765462.774 5 159884158.992 5  39707151.906    39707148.020
 197703023.461 6 152876487.475 6  37966792.852    37966787.742
 199046399.242 6 153915306.058 6  38224765.852    38224762.238
 191546967.837 6 148116209.412 7  36784586.516    36784578.008
 196304853.184 7 151795327.295 7  37698283.516    37698280.309
 207732810.328 6 160632215.952 6  39892902.953    39892908.684
 192607571.869 7 148936405.943 7  36988243.148    36988241.082
 196777992.402 6 152161287.334 6  37789144.516    37789141.715
 190116651.572 6 147010222.641 7  36509907.773    36509901.906
 191691134.265 7 148227708.875 7  36812269.219    36812263.156
 18  5 16  3  4 25.0000000  0 11C02C05C04C08C01C10C13C09C06C03C07
 195913229.483 6 151492498.321 7  37623082.211    37623077.258
 206765454.998 6 159884152.974 5  39707150.078    39707146.590
 197703014.234 6 152876480.334 6  37966791.352    37966786.102
 199044686.574 6 153913981.722 6  38224437.156    38224433.238
 191546949.910 6 148116195.554 7  36784582.852    36784574.426
 196304813.319 7 151795296.469 7  37698276.008    37698272.883
 207731315.327 6 160631059.924 6  39892615.563    39892621.574
 192608886.123 7 148937422.204 7  36988495.531    36988493.012
 196779571.767 6 152162508.596 6  37789448.219    37789444.598
 190116632.786 6 147010208.117 7  36509903.828    36509898.277
 191690986.666 7 148227594.745 7  36812241.375    36812234.691
 18  5 16  3  4 26.0000000  0 11C02C05C04C08C01C10C13C09C06C03C07
 195913220.606 6 151492491.450 7  37623080.641    37623075.527
 206765446.820 6 159884146.661 5  39707148.766    39707145.105
 197703004.672 6 152876472.941 6  37966788.992    37966784.293
 199042973.606 6 153912657.148 6  38224108.109    38224104.559
 191546931.639 6 148116181.426 7  36784579.352    36784570.859
 196304773.037 7 151795265.316 7  37698267.703    37698265.051
 207729819.901 6 160629903.562 6  39892329.164    39892334.578
 192610200.134 7 148938438.282 7  36988747.570    36988745.340
 196781150.816 6 152163729.622 6  37789751.336    37789748.441
 190116613.642 6 147010193.315 7  36509899.930    36509894.734
 191690838.641 7 148227480.287 7  36812212.844    36812206.238
 18  5 16  3  4 27.0000000  0 11C02C05C04C08C01C10C13C09C06C03C07
 195913211.804 6 151492484.644 7  37623078.992    37623073.609
 206765438.738 5 159884140.410 5  39707147.242    39707143.699
 197702995.215 6 152876465.629 6  37966787.047    37966782.523
 199041260.769 6 153911332.677 6  38223779.188    38223775.406
 191546913.447 6 148116167.353 7  36784576.047    36784567.371
 196304732.743 7 151795234.161 7  37698259.852    37698257.254
 207728324.555 6 160628747.260 6  39892041.648    39892047.199
 192611514.394 7 148939454.547 7  36989000.328    36988998.020
 196782729.983 6 152164950.727 6  37790054.953    37790051.996
 190116594.608 6 147010178.593 7  36509896.781    36509891.020
 191690690.604 7 148227365.820 7  36812184.523    36812177.945
 18  5 16  3  4 28.0000000  0 11C02C05C04C08C01C10C13C09C06C03C07
 195913203.064 6 151492477.884 7  37623077.266    37623072.191
 206765430.805 6 159884134.265 5  39707146.094    39707142.293
 197702985.819 6 152876458.363 6  37966785.211    37966780.570
 199039548.019 6 153910008.274 6  38223451.086    38223446.598
 191546895.351 6 148116153.361 7  36784572.555    36784563.984
 196304692.457 7 151795203.010 7  37698252.563    37698249.406
 207726829.286 6 160627591.015 6  39891754.578    39891760.008
 192612828.849 7 148940470.963 7  36989253.211    36989250.535
 196784309.324 6 152166171.972 6  37790357.641    37790354.723
 190116575.664 6 147010163.948 7  36509893.375    36509887.539
 191690542.572 7 148227251.346 7  36812156.086    36812149.340
 18  5 16  3  4 29.0000000  0 11C02C05C04C08C01C10C13C09C06C03C07
 195913194.074 6 151492470.927 7  37623075.781    37623070.277
 206765422.542 5 159884127.879 5  39707145.180    39707140.730
 197702976.136 6 152876450.876 6  37966783.414    37966778.824
 199037835.044 6 153908683.696 6  38223121.836    38223117.801
 191546877.003 6 148116139.170 7  36784569.500    36784560.738
 196304651.800 7 151795171.568 7  37698244.094    37698241.566
 207725333.662 6 160626434.510 6  39891467.023    39891473.000
 192614143.165 7 148941487.274 7  36989505.414    36989502.914
 196785888.384 6 152167392.999 6  37790661.172    37790657.980
 190116556.438 6 147010149.081 7  36509889.383    36509884.117
 191690394.173 7 148227136.593 7  36812127.211    36812120.969
 18  5 16  3  4 30.0000000  0 11C02C05C04C08C01C10C13C09C06C03C07
 195913185.047 6 151492463.951 7  37623073.945    37623068.691
 206765414.255 6 159884121.470 5  39707143.023    39707138.953
 197702966.431 6 152876443.370 6  37966781.156    37966776.887
 199036122.112 6 153907359.149 6  38222792.469    38222788.691
 191546858.600 6 148116124.941 7  36784565.414    36784557.285
 196304611.012 6 151795140.026 7  37698236.688    37698233.945
 207723837.993 6 160625277.956 6  39891179.813    39891185.863
 192615457.572 7 148942503.652 7  36989757.781    36989755.414
 196787467.515 6 152168614.080 6  37790964.852    37790961.234
 190116537.179 6 147010134.187 7  36509885.633    36509880.297
 191690245.694 7 148227021.784 7  36812099.203    36812092.230
 18  5 16  3  4 31.0000000  0 11C02C05C04C08C01C10C13C09C06C03C07
 195913176.215 6 151492457.122 7  37623072.148    37623066.766
 206765406.109 5 159884115.171 5  39707141.352    39707137.566
 197702956.906 6 152876436.005 6  37966779.461    37966774.840
 199034409.363 6 153906034.741 6  38222463.781    38222459.852
 191546840.373 6 148116110.849 7  36784562.227    36784553.813
 196304570.340 7 151795108.579 7  37698228.453    37698225.984
 207722342.502 6 160624121.546 6  39890892.883    39890898.398
 192616772.284 7 148943520.273 7  36990009.898    36990007.723
 196789046.820 6 152169835.293 6  37791268.555    37791264.277
 190116518.099 6 147010119.436 7  36509881.563    36509876.570
 191690097.281 7 148226907.019 7  36812070.125    36812063.848
 18  5 16  3  4 32.0000000  0 11C02C05C04C08C01C10C13C09C06C03C07
 195913167.176 6 151492450.131 7  37623070.672    37623065.395
 206765397.828 6 159884108.761 5  39707138.891    39707135.871
 197702947.205 6 152876428.501 6  37966777.797    37966773.070
 199032696.545 6 153904710.275 6  38222134.891    38222130.980
 191546822.024 6 148116096.655 7  36784558.734    36784549.828
 196304529.415 7 151795076.936 7  37698220.766    37698218.164
 207720846.764 6 160622964.944 6  39890605.320    39890610.844
 192618086.993 7 148944536.885 7  36990262.688    36990260.105
 196790626.016 6 152171056.421 6  37791571.625    37791567.770
 190116498.854 6 147010104.552 7  36509877.859    36509873.094
 191689948.603 7 148226792.048 7  36812041.930    36812035.617
 18  5 16  3  4 33.0000000  0 11C02C05C04C08C01C10C13C09C06C03C07
 195913158.120 6 151492443.123 7  37623069.125    37623063.199
 206765389.579 6 159884102.394 5  39707137.898    39707134.230
 197702937.499 6 152876420.993 6  37966776.148    37966771.313
 199030983.725 6 153903385.816 6  38221806.648    38221801.930
 191546803.627 6 148116082.429 7  36784554.766    36784546.547
 196304488.409 7 151795045.227 7  37698212.695    37698210.324
 207719351.042 6 160621808.358 6  39890318.641    39890323.250
 192619401.827 7 148945553.605 7  36990514.938    36990512.613
 196792205.275 6 152172277.602 6  37791874.602    37791871.102
 190116479.604 6 147010089.659 7  36509874.727    36509869.043
 191689799.827 7 148226677.004 7  36812013.063    36812006.742
 18  5 16  3  4 34.0000000  0 11C02C05C04C08C01C10C13C09C06C03C07
 195913149.230 6 151492436.254 7  37623066.672    37623061.895
 206765381.410 5 159884096.082 5  39707135.984    39707132.574
 197702927.976 6 152876413.632 6  37966774.195    37966769.590
 199029271.124 6 153902061.527 6  38221477.500    38221473.242
 191546785.405 6 148116068.338 7  36784551.922    36784543.113
 196304447.443 7 151795013.547 7  37698204.930    37698202.383
 207717855.391 6 160620651.829 6  39890031.383    39890036.188
 192620716.931 7 148946570.524 7  36990767.672    36990764.996
 196793784.721 6 152173498.932 6  37792177.508    37792174.461
 190116460.522 6 147010074.908 7  36509871.008    36509865.352
 191689651.139 7 148226562.025 7  36811984.563    36811978.250
 18  5 16  3  4 35.0000000  0 11C02C05C04C08C01C10C13C09C06C03C07
 195913140.295 6 151492429.350 7  37623065.492    37623060.383
 206765373.164 6 159884089.702 5  39707134.406    39707130.852
 197702918.386 6 152876406.214 6  37966772.430    37966767.816
 199027558.518 6 153900737.227 6  38221148.648    38221144.211
 191546767.076 6 148116054.162 7  36784548.219    36784539.441
 196304406.359 6 151794981.781 7  37698197.180    37698194.457
 207716359.666 6 160619495.251 6  39889744.008    39889749.063
 192622032.101 7 148947587.493 7  36991020.398    36991017.848
 196795364.140 6 152174720.242 6  37792481.250    37792477.578
 190116441.377 6 147010060.102 7  36509867.719    36509861.461
 191689502.301 7 148226446.934 7  36811955.898    36811949.586
 18  5 16  3  4 36.0000000  0 11C02C05C04C08C01C10C13C09C06C03C07
 195913131.279 6 151492422.382 7  37623063.313    37623058.262
 206765364.894 6 159884083.308 5  39707133.039    39707129.086
 197702908.693 6 152876398.725 6  37966770.570    37966766.004
 199025845.815 6 153899412.862 6  38220819.555    38220815.121
 191546748.697 6 148116039.952 7  36784544.234    36784535.520
 196304365.085 6 151794949.861 7  37698189.078    37698186.488
 207714863.798 6 160618338.547 6  39889456.297    39889461.629
 192623347.325 7 148948604.506 7  36991272.859    36991270.477
 196796943.495 6 152175941.497 6  37792784.555    37792780.602
 190116422.139 6 147010045.226 7  36509863.414    36509858.148
 191689353.282 7 148226331.704 7  36811926.930    36811921.180
 18  5 16  3  4 37.0000000  0 11C02C05C04C08C01C10C13C09C06C03C07
 195913122.334 6 151492415.463 7  37623061.766    37623056.734
 206765356.714 6 159884076.977 5  39707131.281    39707127.758
 197702899.076 6 152876391.284 6  37966768.359    37966764.090
 199024133.293 6 153898088.634 6  38220490.688    38220486.574
 191546730.436 6 148116025.835 7  36784541.102    36784532.625
 196304323.811 6 151794917.945 7  37698181.508    37698178.406
 207713367.983 6 160617181.890 6  39889169.594    39889174.801
 192624662.752 7 148949621.678 7  36991525.766    36991523.027
 196798523.049 6 152177162.910 6  37793087.883    37793084.449
 190116403.001 6 147010030.428 7  36509859.672    36509854.309
 191689204.268 7 148226216.483 7  36811898.766    36811892.520
 18  5 16  3  4 38.0000000  0 11C02C05C04C08C01C10C13C09C06C03C07
 195913113.539 6 151492408.661 6  37623059.992    37623055.078
 206765348.670 5 159884070.747 5  39707129.852    39707126.082
 197702889.633 6 152876383.983 6  37966766.953    37966762.262
 199022420.930 6 153896764.525 6  38220161.781    38220157.594
 191546712.336 6 148116011.837 7  36784537.883    36784529.105
 196304282.659 6 151794886.119 7  37698173.797    37698170.723
 207711872.319 6 160616025.343 6  39888881.969    39888887.723
 192625978.490 7 148950639.092 7  36991778.469    36991775.785
 196800102.772 6 152178384.450 6  37793391.234    37793387.512
 190116384.017 6 147010015.743 7  36509855.906    36509850.617
 191689055.298 7 148226101.286 7  36811869.891    36811864.020
 18  5 16  3  4 39.0000000  0 11C02C05C04C08C01C10C13C09C06C03C07
 195913104.564 6 151492401.720 7  37623058.688    37623053.129
 206765340.461 5 159884064.402 5  39707128.664    39707124.016
 197702880.047 6 152876376.564 6  37966765.203    37966760.551
 199020708.444 6 153895440.326 6  38219833.273    38219828.363
 191546694.039 6 148115997.688 7  36784534.367    36784525.625
 196304241.225 7 151794854.081 7  37698165.195    37698162.707
 207710376.444 6 160614868.634 6  39888595.086    39888600.203
 192627294.191 7 148951656.472 7  36992030.602    36992028.387
 196801682.424 6 152179605.937 6  37793694.883    37793691.289
 190116364.857 6 147010000.930 7  36509852.664    36509847.262
 191688906.110 7 148225985.928 7  36811841.734    36811835.379
 18  5 16  3  4 40.0000000  0 11C02C05C04C08C01C10C13C09C06C03C07
 195913095.880 6 151492395.004 7  37623056.766    37623051.254
 206765332.470 5 159884058.223 5  39707126.750    39707122.926
 197702870.655 6 152876369.305 6  37966763.117    37966758.617
 199018996.268 6 153894116.363 6  38219504.648    38219500.031
 191546675.975 6 148115983.718 7  36784530.383    36784521.805
 196304199.909 7 151794822.130 7  37698157.430    37698154.621
 207708880.768 6 160613712.079 6  39888307.258    39888312.848
 192628610.269 7 148952674.146 7  36992283.586    36992281.031
 196803262.318 6 152180827.607 6  37793997.711    37793994.598
 190116345.970 6 147009986.328 7  36509848.930    36509843.469
 191688757.042 7 148225870.658 7  36811812.961    36811806.961
 18  5 16  3  4 41.0000000  0 11C02C05C04C08C01C10C13C09C06C03C07
 195913086.938 6 151492388.088 7  37623055.117    37623049.602
 206765324.335 6 159884051.939 6  39707124.570    39707121.270
 197702861.133 6 152876361.942 6  37966761.688    37966756.543
 199017283.959 6 153892792.295 6  38219174.891    38219171.047
 191546657.736 6 148115969.612 7  36784527.172    36784518.387
 196304158.365 7 151794790.017 7  37698149.586    37698146.832
 207707384.910 6 160612555.384 6  39888020.648    39888025.363
 192629926.274 7 148953691.762 7  36992536.336    36992533.926
 196804842.049 6 152182049.150 6  37794301.164    37794297.883
 190116326.870 6 147009971.559 7  36509845.563    36509840.004
 191688607.724 7 148225755.189 7  36811784.375    36811778.035
 18  5 16  3  4 42.0000000  0 11C02C05C04C08C01C10C13C09C06C03C07
 195913077.914 6 151492381.110 7  37623053.703    37623048.051
 206765316.082 6 159884045.550 5  39707123.492    39707119.746
 197702851.467 6 152876354.465 6  37966759.617    37966754.828
 199015571.522 6 153891468.129 6  38218846.414    38218842.285
 191546639.383 6 148115955.423 7  36784523.328    36784514.867
 196304116.646 7 151794757.752 7  37698141.828    37698138.547
 207705888.866 6 160611398.550 6  39887732.789    39887738.223
 192631242.326 7 148954709.415 7  36992789.125    36992786.316
 196806421.749 6 152183270.671 6  37794604.531    37794600.949
 190116307.682 6 147009956.721 7  36509841.930    36509836.254
 191688458.187 7 148225639.557 7  36811755.734    36811749.055
 18  5 16  3  4 43.0000000  0 11C02C05C04C08C01C10C13C09C06C03C07
 195913069.054 6 151492374.261 7  37623051.766    37623046.109
 206765307.909 6 159884039.228 5  39707122.211    39707118.031
 197702841.952 6 152876347.110 6  37966757.797    37966753.109
 199013859.354 6 153890144.172 6  38218517.422    38218513.254
 191546621.209 6 148115941.367 7  36784519.680    36784511.492
 196304075.011 7 151794725.563 7  37698134.148    37698130.668
 207704393.000 6 160610241.848 6  39887445.172    39887451.020
 192632558.675 7 148955727.299 7  36993041.445    36993039.352
 196808001.634 6 152184492.336 6  37794908.203    37794904.461
 190116288.627 6 147009941.986 7  36509837.805    36509832.301
 191688308.750 7 148225524.004 7  36811726.938    36811720.430
 18  5 16  3  4 44.0000000  0 11C02C05C04C08C01C10C13C09C06C03C07
 195913060.221 6 151492367.428 7  37623050.109    37623044.488
 206765299.867 5 159884033.009 5  39707120.734    39707116.875
 197702832.477 6 152876339.784 6  37966755.695    37966751.309
 199012147.167 6 153888820.202 6  38218188.578    38218184.676
 191546603.037 6 148115927.321 7  36784516.180    36784508.047
 196304033.260 7 151794693.271 7  37698125.781    37698122.918
 207702897.060 6 160609085.093 6  39887157.828    39887163.883
 192633875.174 7 148956745.305 7  36993294.867    36993292.438
 196809581.625 6 152185714.080 6  37795211.891    37795208.195
 190116269.618 6 147009927.288 7  36509834.078    36509828.688
 191688159.218 7 148225408.376 7  36811697.867    36811691.602
 18  5 16  3  4 45.0000000  0 11C02C05C04C08C01C10C13C09C06C03C07
 195913051.348 6 151492360.568 7  37623048.211    37623042.750
 206765291.712 6 159884026.703 5  39707118.453    39707115.230
 197702823.010 6 152876332.463 6  37966753.945    37966749.750
 199010435.092 6 153887496.318 6  38217859.664    38217856.090
 191546584.893 6 148115913.289 7  36784512.992    36784504.371
 196303991.455 7 151794660.937 7  37698117.930    37698114.770
 207701401.126 6 160607928.348 6  39886871.117    39886876.492
 192635191.777 7 148957763.383 7  36993547.570    36993545.023
 196811161.609 6 152186935.823 6  37795514.773    37795511.055
 190116250.585 6 147009912.573 7  36509830.586    36509825.105
 191688009.626 7 148225292.700 7  36811668.859    36811663.320
 18  5 16  3  4 46.0000000  0 11C02C05C04C08C01C10C13C09C06C03C07
 195913042.233 6 151492353.513 7  37623046.234    37623041.039
 206765283.353 6 159884020.238 5  39707117.313    39707113.570
 197702813.217 6 152876324.886 6  37966752.492    37966747.934
 199008722.788 6 153886172.253 6  38217530.789    38217526.902
 191546566.500 6 148115899.065 7  36784509.445    36784500.746
 196303949.304 7 151794628.341 7  37698110.031    37698106.902
 207699904.882 6 160606771.355 6  39886583.625    39886589.156
 192636508.264 7 148958781.374 7  36993800.117    36993797.871
 196812741.407 6 152188157.423 6  37795818.000    37795814.355
 190116231.321 6 147009897.676 7  36509826.281    36509821.344
 191687859.659 7 148225176.739 7  36811640.500    36811634.168
 18  5 16  3  4 47.0000000  0 11C02C05C04C08C01C10C13C09C06C03C07
 195913033.319 6 151492346.629 7  37623044.953    37623039.398
 206765275.195 5 159884013.933 5  39707116.195    39707112.074
 197702803.737 6 152876317.563 6  37966750.344    37966745.754
 199007010.707 6 153884848.359 6  38217202.234    38217198.094
 191546548.309 6 148115885.003 7  36784506.125    36784497.332
 196303907.273 7 151794595.835 7  37698101.289    37698098.660
 207698408.848 6 160605614.526 6  39886296.250    39886301.816
 192637825.100 7 148959799.631 7  36994053.188    36994050.711
 196814321.454 6 152189379.213 6  37796122.281    37796117.879
 190116212.234 6 147009882.913 7  36509823.211    36509817.641
 191687709.839 7 148225060.886 7  36811611.734    36811605.570
 18  5 16  3  4 48.0000000  0 11C02C05C04C08C01C10C13C09C06C03C07
 195913024.357 6 151492339.699 7  37623043.219    37623037.719
 206765266.997 5 159884007.594 5  39707114.258    39707109.957
 197702794.141 6 152876310.133 6  37966748.742    37966743.953
 199005298.640 6 153883524.487 6  38216873.297    38216869.309
 191546530.054 6 148115870.882 7  36784502.156    36784493.711
 196303865.073 7 151794563.207 7  37698093.070    37698090.664
 207696912.695 6 160604457.605 6  39886009.414    39886014.289
 192639141.984 7 148960817.933 7  36994305.836    36994303.348
 196815901.487 6 152190600.989 6  37796425.617    37796421.613
 190116193.117 6 147009868.126 7  36509819.742    36509814.125
 191687559.863 7 148224944.911 7  36811582.328    36811576.762
 18  5 16  3  4 49.0000000  0 11C02C05C04C08C01C10C13C09C06C03C07
 195913015.506 6 151492332.848 7  37623041.797    37623036.102
 206765258.867 5 159884001.308 5  39707112.172    39707108.520
 197702784.642 6 152876302.791 6  37966746.758    37966742.000
 199003586.726 6 153882200.722 6  38216544.523    38216540.855
 191546511.927 6 148115856.869 7  36784498.727    36784490.504
 196303822.911 7 151794530.606 7  37698085.641    37698082.688
 207695416.600 6 160603300.727 6  39885721.586    39885727.066
 192640459.125 7 148961836.428 7  36994558.969    36994556.594
 196817481.659 6 152191822.872 6  37796728.898    37796724.863
 190116174.103 6 147009853.426 7  36509815.906    36509810.289
 191687409.915 7 148224828.964 7  36811554.063    36811547.895
 18  5 16  3  4 50.0000000  0 11C02C05C04C08C01C10C13C09C06C03C07
 195913006.433 6 151492325.826 7  37623039.773    37623034.492
 206765250.543 5 159883994.863 5  39707110.703    39707107.059
 197702774.949 6 152876295.291 6  37966744.547    37966740.281
 199001874.613 6 153880876.816 6  38216215.977    38216211.949
 191546493.560 6 148115842.662 7  36784495.398    36784486.961
 196303780.435 7 151794497.767 7  37698077.648    37698074.406
 207693920.290 6 160602143.685 6  39885434.281    39885439.586
 192641776.173 7 148962854.855 7  36994812.008    36994809.648
 196819061.684 6 152193044.646 6  37797032.250    37797027.816
 190116154.878 6 147009838.558 7  36509812.031    36509806.090
 191687259.668 7 148224712.782 7  36811524.961    36811518.844
 18  5 16  3  4 51.0000000  0 11C02C05C04C08C01C10C13C09C06C03C07
 195912997.697 6 151492319.068 7  37623037.945    37623032.910
 206765242.617 5 159883988.729 5  39707109.516    39707105.453
 197702765.641 6 152876288.095 6  37966743.031    37966738.313
 199000162.913 6 153879553.221 6  38215887.180    38215883.238
 191546475.579 6 148115828.755 7  36784492.305    36784483.430
 196303738.291 7 151794465.171 7  37698069.758    37698066.125
 207692424.310 6 160600986.896 6  39885147.148    39885152.449
 192643093.754 7 148963873.688 7  36995064.758    36995062.484
 196820642.122 6 152194266.745 6  37797335.539    37797331.496
 190116135.999 6 147009823.959 7  36509808.680    36509802.707
 191687109.703 7 148224596.819 7  36811496.141    36811489.906
 18  5 16  3  4 52.0000000  0 11C02C05C04C08C01C10C13C09C06C03C07
 195912988.746 6 151492312.149 7  37623036.188    37623031.148
 206765234.406 6 159883982.386 5  39707107.844    39707103.758
 197702756.086 6 152876280.706 6  37966741.609    37966736.629
 198998451.018 6 153878229.478 6  38215559.070    38215554.707
 191546457.343 6 148115814.652 7  36784488.945    36784480.051
 196303695.768 7 151794432.288 7  37698060.789    37698057.984
 207690928.090 6 160599829.922 6  39884859.625    39884864.793
 192644411.207 7 148964892.424 7  36995317.703    36995315.359
 196822222.366 6 152195488.688 6  37797638.727    37797635.297
 190116116.933 6 147009809.213 7  36509804.781    36509799.102
 191686959.423 7 148224480.616 7  36811467.242    36811461.289
 18  5 16  3  4 53.0000000  0 11C02C05C04C08C01C10C13C09C06C03C07
 195912979.962 6 151492305.364 7  37623034.344    37623029.063
 206765226.364 6 159883976.167 5  39707106.016    39707102.152
 197702746.667 6 152876273.421 6  37966739.570    37966734.984
 198996739.341 6 153876905.904 6  38215230.648    38215226.129
 191546439.280 6 148115800.687 7  36784485.461    36784476.609
 196303653.344 7 151794399.484 7  37698053.008    37698049.875
 207689431.909 6 160598672.983 6  39884572.516    39884577.461
 192645728.960 7 148965911.395 7  36995570.734    36995568.430
 196823802.828 6 152196710.801 6  37797942.391    37797938.836
 190116098.008 6 147009794.580 7  36509800.969    36509795.707
 191686809.226 7 148224364.472 7  36811438.453    36811432.398
 18  5 16  3  4 54.0000000  0 11C02C05C04C08C01C10C13C09C06C03C07
 195912970.828 6 151492298.297 7  37623032.727    37623027.531
 206765217.997 5 159883969.693 5  39707105.125    39707101.188
 197702736.969 6 152876265.916 6  37966737.352    37966732.762
 198995027.395 6 153875582.121 6  38214901.203    38214897.172
 191546420.874 6 148115786.457 7  36784481.750    36784472.996
 196303610.510 7 151794366.361 7  37698045.008    37698041.434
 207687935.439 6 160597515.829 6  39884285.031    39884290.383
 192647046.496 7 148966930.195 7  36995823.570    36995821.422
 196825383.000 6 152197932.692 6  37798245.891    37798242.512
 190116078.750 6 147009779.689 7  36509797.508    36509792.000
 191686658.573 7 148224247.980 7  36811409.469    36811403.457
 18  5 16  3  4 55.0000000  0 11C02C05C04C08C01C10C13C09C06C03C07
 195912961.816 6 151492291.329 7  37623030.555    37623025.605
 206765209.718 5 159883963.295 5  39707103.234    39707099.523
 197702727.316 6 152876258.455 6  37966735.883    37966730.957
 198993315.580 6 153874258.433 6  38214572.523    38214568.047
 191546402.619 6 148115772.342 7  36784478.305    36784469.523
 196303567.652 7 151794333.221 7  37698036.672    37698033.402
 207686439.018 6 160596358.703 6  39883997.578    39884002.801
 192648364.279 7 148967949.187 7  36996076.570    36996074.594
 196826963.303 6 152199154.678 6  37798549.242    37798546.184
 190116059.609 6 147009764.886 7  36509793.875    36509788.453
 191686507.957 7 148224131.508 7  36811380.359    36811374.828
 18  5 16  3  4 56.0000000  0 11C02C05C04C08C01C10C13C09C06C03C07
 195912952.936 6 151492284.462 7  37623028.609    37623024.293
 206765201.616 6 159883957.025 5  39707101.820    39707097.898
 197702717.847 6 152876251.133 6  37966733.828    37966729.102
 198991603.951 6 153872934.890 6  38214243.688    38214239.680
 191546384.505 6 148115758.331 7  36784474.484    36784466.113
 196303524.946 7 151794300.201 7  37698028.406    37698024.895
 207684942.749 6 160595201.691 6  39883710.445    39883715.824
 192649682.338 7 148968968.392 7  36996329.773    36996327.617
 196828543.841 6 152200376.850 6  37798852.992    37798849.578
 190116040.611 6 147009750.199 7  36509790.219    36509784.879
 191686357.416 7 148224015.104 7  36811352.031    36811345.551
 18  5 16  3  4 57.0000000  0 11C02C05C04C08C01C10C13C09C06C03C07
 195912943.981 6 151492277.534 7  37623027.547    37623022.426
 206765193.391 6 159883950.673 5  39707100.125    39707096.012
 197702708.288 6 152876243.737 6  37966732.188    37966727.344
 198989892.292 6 153871611.326 6  38213915.055    38213910.879
 191546366.280 6 148115744.236 7  36784470.914    36784462.566
 196303481.993 7 151794266.989 7  37698020.063    37698016.766
 207683446.326 6 160594044.560 6  39883423.102    39883428.707
 192651000.453 7 148969987.641 7  36996583.555    36996580.906
 196830124.290 6 152201598.950 6  37799156.648    37799153.176
 190116021.552 6 147009735.460 7  36509786.680    36509781.203
 191686206.692 7 148223898.552 7  36811322.875    36811316.699
 18  5 16  3  4 58.0000000  0 11C02C05C04C08C01C10C13C09C06C03C07
 195912935.232 6 151492270.774 7  37623025.406    37623020.563
 206765185.460 5 159883944.530 5  39707098.719    39707094.281
 197702698.966 6 152876236.530 6  37966729.875    37966725.574
 198988180.883 6 153870287.958 6  38213585.984    38213582.688
 191546348.331 6 148115730.354 7  36784467.375    36784459.191
 196303439.254 7 151794233.935 7  37698011.711    37698008.578
 207681950.126 6 160592887.600 6  39883135.320    39883141.129
 192652318.945 7 148971007.179 7  36996836.219    36996834.094
 196831705.071 6 152202821.305 6  37799460.258    37799456.621
 190116002.702 6 147009720.881 7  36509782.719    36509777.457
 191686056.137 7 148223782.134 7  36811293.820    36811287.895
 18  5 16  3  4 59.0000000  0 11C02C05C04C08C01C10C13C09C06C03C07
 195912926.074 6 151492263.689 7  37623023.758    37623018.742
 206765177.037 5 159883938.018 5  39707096.961    39707092.766
 197702689.196 6 152876228.974 6  37966727.789    37966723.707
 198986469.132 6 153868964.324 6  38213257.344    38213253.742
 191546329.933 6 148115716.125 7  36784464.000    36784455.508
 196303395.995 7 151794200.482 7  37698003.328    37698000.277
 207680453.436 6 160591730.264 6  39882847.992    39882853.484
 192653637.124 7 148972026.478 7  36997089.711    36997087.395
 196833285.442 6 152204043.343 6  37799763.813    37799760.000
 190115983.439 6 147009705.987 7  36509779.297    36509773.484
 191685905.071 7 148223665.321 7  36811264.984    36811258.867
 18  5 16  3  5  0.0000000  0 11C02C05C04C08C01C10C13C09C06C03C07
 195912917.038 6 151492256.701 7  37623022.266    37623017.023
 206765168.751 5 159883931.619 5  39707095.320    39707091.438
 197702679.602 6 152876221.562 6  37966726.617    37966722.055
 198984757.489 6 153867640.781 6  38212929.133    38212924.992
 191546311.649 6 148115701.990 7  36784460.469    36784452.199
 196303352.774 7 151794167.059 7  37697995.531    37697992.059
 207678956.849 6 160590573.013 6  39882560.711    39882566.359
 192654955.574 7 148973045.995 7  36997343.336    36997340.621
 196834865.989 6 152205265.524 6  37800067.375    37800063.480
 190115964.278 6 147009691.173 7  36509775.461    36509769.863
 191685753.998 7 148223548.498 7  36811236.023    36811229.617
 18  5 16  3  5  1.0000000  0 11C02C05C04C08C01C10C13C09C06C03C07
 195912908.147 6 151492249.819 7  37623020.633    37623015.461
 206765160.668 5 159883925.370 5  39707093.844    39707089.988
 197702670.130 6 152876214.234 6  37966724.492    37966720.172
 198983046.050 6 153866317.388 6  38212600.320    38212596.398
 191546293.521 6 148115687.978 7  36784456.992    36784448.273
 196303309.565 7 151794133.645 7  37697986.891    37697983.965
 207677460.382 6 160589415.850 6  39882273.742    39882278.906
 192656274.289 7 148974065.708 7  36997596.250    36997593.707
 196836446.739 6 152206487.860 6  37800370.891    37800367.324
 190115945.281 6 147009676.482 7  36509772.078    36509766.223
 191685602.996 7 148223431.736 7  36811207.094    36811200.883
 18  5 16  3  5  2.0000000  0 11C02C05C04C08C01C10C13C09C06C03C07
 195912899.168 6 151492242.882 7  37623018.727    37623013.414
 206765152.431 5 159883918.993 5  39707092.555    39707088.574
 197702660.526 6 152876206.812 6  37966722.672    37966718.121
 198981334.577 6 153864993.962 6  38212271.906    38212267.598
 191546275.312 6 148115673.897 7  36784453.664    36784445.219
 196303266.211 7 151794100.124 7  37697978.430    37697975.285
 207675963.802 6 160588258.593 6  39881986.531    39881991.902
 192657593.043 7 148975085.447 7  36997849.445    36997847.121
 196838027.411 6 152207710.137 6  37800674.172    37800670.621
 190115926.180 6 147009661.715 7  36509767.945    36509762.891
 191685451.839 7 148223314.849 7  36811177.945    36811172.047
 18  5 16  3  5  3.0000000  0 11C02C05C04C08C01C10C13C09C06C03C07
 195912890.217 6 151492235.959 7  37623017.680    37623011.988
 206765144.232 6 159883912.651 5  39707090.781    39707087.066
 197702650.935 6 152876199.391 6  37966721.102    37966716.582
 198979623.187 6 153863670.610 6  38211942.797    38211938.832
 191546257.115 6 148115659.822 7  36784450.203    36784441.531
 196303222.755 7 151794066.520 7  37697970.156    37697967.059
 207674467.194 6 160587101.322 6  39881698.859    39881704.332
 192658911.928 7 148976105.289 7  36998102.648    36998100.477
 196839608.161 6 152208932.477 6  37800977.797    37800974.301
 190115907.142 6 147009646.991 7  36509764.234    36509758.832
 191685300.575 7 148223197.881 7  36811148.711    36811142.547
 18  5 16  3  5  4.0000000  0 11C02C05C04C08C01C10C13C09C06C03C07
 195912881.274 6 151492229.045 6  37623015.242    37623010.660
 206765136.084 5 159883906.346 5  39707088.719    39707085.426
 197702641.469 6 152876192.073 6  37966719.102    37966714.691
 198977911.891 6 153862347.327 6  38211614.578    38211610.422
 191546239.004 6 148115645.820 7  36784446.352    36784437.949
 196303179.338 7 151794032.955 7  37697961.945    37697958.820
 207672970.610 6 160585944.070 6  39881411.203    39881416.699
 192660231.015 7 148977125.291 7  36998355.984    36998353.543
 196841189.046 6 152210154.916 6  37801281.594    37801278.215
 190115888.117 6 147009632.279 7  36509761.227    36509755.254
 191685149.292 7 148223080.899 7  36811120.156    36811113.766
 18  5 16  3  5  5.0000000  0 11C02C05C04C08C01C10C13C09C06C03C07
 195912872.442 6 151492222.213 7  37623013.742    37623008.699
 206765128.066 6 159883900.149 5  39707087.414    39707083.836
 197702632.086 6 152876184.824 6  37966717.281    37966712.883
 198976200.720 6 153861024.142 6  38211285.906    38211281.609
 191546220.974 6 148115631.876 7  36784442.922    36784434.602
 196303135.942 7 151793999.405 7  37697953.813    37697950.316
 207671474.124 6 160584786.894 6  39881123.227    39881129.184
 192661550.369 7 148978145.500 7  36998609.250    36998606.891
 196842770.064 6 152211377.454 6  37801584.672    37801581.781
 190115869.236 6 147009617.678 7  36509757.258    36509751.762
 191684998.055 7 148222963.953 7  36811090.695    36811084.434
 18  5 16  3  5  6.0000000  0 11C02C05C04C08C01C10C13C09C06C03C07
 195912863.580 6 151492215.363 7  37623011.836    37623006.980
 206765119.953 6 159883893.878 6  39707086.453    39707082.301
 197702622.664 6 152876177.535 7  37966715.617    37966711.098
 198974489.585 6 153859700.989 6  38210956.914    38210952.734
 191546202.909 6 148115617.903 7  36784440.016    36784431.145
 196303092.404 7 151793965.734 7  37697945.367    37697941.988
 207669977.508 6 160583629.611 6  39880836.539    39880842.289
 192662869.769 7 148979165.746 7  36998862.844    36998859.930
 196844351.067 6 152212599.981 6  37801888.398    37801885.473
 190115850.296 6 147009603.030 7  36509753.930    36509748.188
 191684846.694 7 148222846.911 7  36811061.750    36811055.090
 18  5 16  3  5  7.0000000  0 11C02C05C04C08C01C10C13C09C06C03C07
 195912854.469 6 151492208.313 7  37623010.336    37623005.004
 206765111.596 5 159883887.417 5  39707084.453    39707080.574
 197702612.973 6 152876170.031 6  37966713.109    37966709.004
 198972778.179 6 153858377.613 6  38210628.242    38210624.355
 191546184.562 6 148115603.715 7  36784435.938    36784427.582
 196303048.485 7 151793931.771 7  37697936.703    37697933.520
 207668480.611 6 160582472.121 6  39880549.203    39880554.840
 192664189.059 7 148980185.897 7  36999116.016    36999113.520
 196845931.860 7 152213822.351 6  37802192.078    37802188.918
 190115831.080 6 147009588.170 7  36509750.352    36509744.168
 191684694.958 7 148222729.576 7  36811032.930    36811026.234
 18  5 16  3  5  8.0000000  0 11C02C05C04C08C01C10C13C09C06C03C07
 195912845.543 6 151492201.404 7  37623008.648    37623003.156
 206765103.461 6 159883881.122 5  39707082.633    39707078.836
 197702603.465 6 152876162.683 6  37966711.438    37966707.297
 198971067.040 6 153857054.448 6  38210299.875    38210295.809
 191546166.445 6 148115589.704 7  36784432.594    36784424.125
 196303004.695 7 151793897.905 7  37697928.258    37697924.840
 207666983.871 6 160581314.739 6  39880262.313    39880267.059
 192665508.664 7 148981206.301 7  36999369.750    36999367.008
 196847512.888 6 152215044.895 6  37802496.117    37802492.199
 190115812.093 6 147009573.488 7  36509745.938    36509740.730
 191684543.323 7 148222612.319 7  36811003.555    36810997.340
 18  5 16  3  5  9.0000000  0 11C02C05C04C08C01C10C13C09C06C03C07
 195912836.527 6 151492194.439 7  37623006.789    37623001.824
 206765095.204 6 159883874.743 6  39707081.250    39707077.223
 197702593.854 6 152876155.249 6  37966709.859    37966705.379
 198969355.851 6 153855731.256 6  38209970.617    38209966.984
 191546148.218 6 148115575.610 7  36784429.102    36784420.320
 196302960.738 7 151793863.910 7  37697919.938    37697916.555
 207665487.069 6 160580157.313 6  39879974.469    39879979.633
 192666828.296 7 148982226.725 7  36999622.508    36999620.410
 196849093.850 6 152216267.394 6  37802799.547    37802795.832
 190115792.998 6 147009558.723 7  36509742.875    36509737.250
 191684391.523 7 148222494.933 7  36810974.023    36810968.262
 18  5 16  3  5 10.0000000  0 11C02C05C04C08C01C10C13C09C06C03C07
 195912827.426 6 151492187.395 7  37623004.953    37622999.980
 206765086.914 6 159883868.333 6  39707079.383    39707075.535
 197702584.237 6 152876147.809 6  37966707.906    37966703.344
 198967644.609 6 153854408.021 6  38209641.750    38209638.523
 191546129.962 6 148115561.493 7  36784426.055    36784416.934
 196302916.639 6 151793829.805 7  37697911.375    37697908.523
 207663990.094 6 160578999.764 6  39879686.938    39879692.172
 192668148.043 7 148983247.234 7  36999875.914    36999874.082
 196850674.881 6 152217489.949 6  37803102.750    37803099.922
 190115773.859 6 147009543.922 7  36509739.008    36509733.359
 191684239.605 7 148222377.464 7  36810945.172    36810938.922
 18  5 16  3  5 11.0000000  0 11C02C05C04C08C01C10C13C09C06C03C07
 195912818.356 6 151492180.386 7  37623002.594    37622998.230
 206765078.635 5 159883861.926 5  39707077.805    39707073.629
 197702574.632 6 152876140.382 6  37966706.320    37966701.664
 198965933.536 6 153853084.911 6  38209313.625    38209309.555
 191546111.731 6 148115547.393 7  36784422.156    36784413.316
 196302872.506 7 151793795.689 7  37697902.766    37697899.590
 207662493.219 6 160577842.283 6  39879399.297    39879405.125
 192669467.944 7 148984267.865 7  37000129.773    37000127.355
 196852255.917 6 152218712.505 6  37803406.750    37803403.750
 190115754.736 6 147009529.137 7  36509735.422    36509729.504
 191684087.616 7 148222259.942 7  36810916.180    36810909.742
 18  5 16  3  5 12.0000000  0 11C02C05C04C08C01C10C13C09C06C03C07
 195912809.269 6 151492173.364 7  37623001.539    37622996.492
 206765070.359 5 159883855.516 5  39707076.336    39707072.496
 197702564.964 6 152876132.905 6  37966704.781    37966699.996
 198964222.416 6 153851761.765 6  38208984.680    38208981.227
 191546093.470 6 148115533.275 7  36784418.508    36784410.020
 196302828.209 7 151793761.435 7  37697894.680    37697891.305
 207660996.202 6 160576684.698 6  39879111.961    39879117.414
 192670787.937 7 148985288.563 7  37000382.711    37000380.961
 196853837.000 6 152219935.102 6  37803710.305    37803707.199
 190115735.606 6 147009514.345 7  36509731.867    36509726.008
 191683935.506 7 148222142.329 7  36810886.711    36810880.508
 18  5 16  3  5 13.0000000  0 11C02C05C04C08C01C10C13C09C06C03C07
 195912800.051 6 151492166.236 7  37622999.727    37622994.531
 206765061.912 5 159883848.986 5  39707074.891    39707070.766
 197702555.224 6 152876125.375 6  37966702.891    37966697.695
 198962511.237 6 153850438.573 6  38208656.328    38208652.563
 191546075.104 6 148115519.072 7  36784414.836    36784406.863
 196302783.778 7 151793727.075 7  37697885.836    37697883.082
 207659499.111 6 160575527.055 6  39878824.180    39878830.078
 192672107.965 7 148986309.295 7  37000636.563    37000634.449
 196855418.003 6 152221157.633 6  37804013.750    37804010.887
 190115716.355 6 147009499.456 7  36509728.117    36509722.496
 191683783.201 7 148222024.554 7  36810857.023    36810851.672
 18  5 16  3  5 14.0000000  0 11C02C05C04C08C01C10C13C09C06C03C07
 195912791.300 6 151492159.461 7  37622997.969    37622993.004
 206765053.940 5 159883842.828 6  39707072.586    39707069.230
 197702545.914 6 152876118.175 6  37966700.891    37966695.961
 198960800.582 6 153849115.788 6  38208327.523    38208324.180
 191546057.165 6 148115505.202 7  36784411.469    36784403.172
 196302739.667 7 151793692.971 7  37697877.445    37697874.348
 207658002.376 6 160574369.679 6  39878537.211    39878542.520
 192673428.555 7 148987330.455 7  37000890.172    37000887.906
 196856999.492 6 152222380.536 6  37804317.617    37804314.387
 190115697.554 6 147009484.920 7  36509724.500    36509718.891
 191683631.257 7 148221907.060 7  36810828.328    36810822.250
 18  5 16  3  5 15.0000000  0 11C02C05C04C08C01C10C13C09C06C03C07
 195912782.367 6 151492152.553 7  37622996.195    37622991.238
 206765045.758 5 159883836.506 5  39707071.422    39707067.660
 197702536.445 6 152876110.858 6  37966699.664    37966694.277
 198959089.724 6 153847792.851 6  38207999.102    38207995.531
 191546039.041 6 148115491.186 7  36784408.148    36784399.789
 196302695.284 7 151793658.652 7  37697868.734    37697865.988
 207656505.443 6 160573212.157 6  39878249.273    39878254.957
 192674749.074 7 148988351.563 7  37001143.727    37001140.949
 196858580.866 6 152223603.354 6  37804621.469    37804618.051
 190115678.576 6 147009470.243 7  36509720.875    36509715.176
 191683479.038 7 148221789.354 7  36810798.977    36810792.949
 18  5 16  3  5 16.0000000  0 11C02C05C04C08C01C10C13C09C06C03C07
 195912773.570 6 151492145.749 7  37622994.523    37622989.477
 206765037.716 5 159883830.285 5  39707069.688    39707066.242
 197702527.059 6 152876103.599 6  37966697.492    37966692.313
 198957379.072 6 153846470.059 6  38207670.203    38207667.113
 191546021.066 6 148115477.287 7  36784404.508    36784395.992
 196302650.984 7 151793624.395 7  37697860.508    37697857.195
 207655008.650 6 160572054.743 6  39877962.117    39877967.953
 192676069.878 7 148989372.896 7  37001397.242    37001395.250
 196860162.412 6 152224826.306 6  37804925.359    37804921.930
 190115659.729 6 147009455.669 7  36509717.102    36509711.410
 191683326.869 7 148221671.685 7  36810769.914    36810763.789
 18  5 16  3  5 17.0000000  0 11C02C05C04C08C01C10C13C09C06C03C07
 195912764.592 6 151492138.810 7  37622992.516    37622987.816
 206765029.535 5 159883823.957 5  39707068.727    39707064.434
 197702517.581 6 152876096.272 6  37966695.555    37966690.500
 198955668.329 6 153845147.206 6  38207341.781    38207338.563
 191546002.949 6 148115463.279 7  36784401.234    36784392.637
 196302606.421 6 151793589.939 7  37697851.711    37697848.656
 207653511.609 6 160570897.138 6  39877674.664    39877680.309
 192677390.655 7 148990394.207 7  37001651.203    37001648.934
 196861743.818 6 152226049.146 6  37805228.898    37805225.453
 190115640.722 6 147009440.969 7  36509712.883    36509708.094
 191683174.452 7 148221553.824 7  36810740.523    36810734.344
 18  5 16  3  5 18.0000000  0 11C02C05C04C08C01C10C13C09C06C03C07
 195912755.625 6 151492131.875 7  37622991.141    37622986.094
 206765021.355 5 159883817.631 6  39707067.266    39707062.961
 197702508.050 6 152876088.899 6  37966694.031    37966688.801
 198953957.613 6 153843824.371 6  38207013.250    38207010.156
 191545984.825 6 148115449.259 7  36784397.813    36784388.895
 196302561.782 6 151793555.415 7  37697842.805    37697840.051
 207652014.550 6 160569739.512 6  39877387.594    39877392.496
 192678711.589 7 148991415.632 7  37001904.672    37001902.434
 196863325.308 6 152227272.057 6  37805532.258    37805529.180
 190115621.711 6 147009426.268 7  36509709.688    36509704.137
 191683021.965 7 148221435.911 7  36810711.516    36810704.945
 18  5 16  3  5 19.0000000  0 11C02C05C04C08C01C10C13C09C06C03C07
 195912746.589 6 151492124.894 7  37622989.914    37622984.609
 206765013.117 6 159883811.262 5  39707065.906    39707061.699
 197702498.476 6 152876081.499 6  37966692.227    37966687.297
 198952246.876 6 153842501.518 6  38206684.945    38206681.750
 191545966.647 6 148115435.207 7  36784394.211    36784385.520
 196302516.974 7 151793520.762 7  37697834.438    37697831.715
 207650517.384 6 160568581.812 6  39877099.586    39877104.918
 192680032.540 7 148992437.071 7  37002158.344    37002156.223
 196864906.768 7 152228494.936 6  37805836.391    37805833.285
 190115602.677 6 147009411.548 7  36509706.344    36509700.727
 191682869.306 7 148221317.860 7  36810681.883    36810675.875
 18  5 16  3  5 20.0000000  0 11C02C05C04C08C01C10C13C09C06C03C07
 195912737.569 6 151492117.922 7  37622988.234    37622982.625
 206765004.892 5 159883804.906 6  39707063.617    39707060.000
 197702488.935 6 152876074.119 6  37966690.039    37966685.508
 198950536.210 6 153841178.722 6  38206356.617    38206353.008
 191545948.443 6 148115421.131 7  36784390.656    36784381.934
 196302472.103 7 151793486.067 7  37697825.969    37697823.000
 207649020.255 6 160567424.134 6  39876811.984    39876817.570
 192681353.666 7 148993458.653 7  37002411.813    37002409.641
 196866488.306 6 152229717.883 6  37806140.211    37806136.676
 190115583.632 6 147009396.825 7  36509702.180    36509696.773
 191682716.589 7 148221199.767 7  36810652.164    36810646.480
 18  5 16  3  5 21.0000000  0 11C02C05C04C08C01C10C13C09C06C03C07
 195912728.616 6 151492110.995 7  37622986.133    37622980.938
 206764996.697 5 159883798.566 6  39707062.297    39707058.484
 197702479.445 6 152876066.775 6  37966688.219    37966683.723
 198948825.642 6 153839856.008 6  38206027.938    38206024.500
 191545930.348 6 148115407.138 7  36784387.070    36784378.840
 196302427.226 7 151793451.361 7  37697817.438    37697814.254
 207647523.148 6 160566266.475 6  39876524.539    39876529.828
 192682675.002 7 148994480.393 7  37002666.047    37002663.398
 196868069.922 6 152230940.887 6  37806443.789    37806440.680
 190115564.665 6 147009382.157 7  36509698.875    36509693.422
 191682563.857 7 148221081.664 7  36810623.539    36810617.035
 18  5 16  3  5 22.0000000  0 11C02C05C04C08C01C10C13C09C06C03C07
 195912719.731 6 151492104.122 7  37622984.508    37622979.430
 206764988.636 5 159883792.337 5  39707060.914    39707056.875
 197702470.017 6 152876059.492 6  37966685.945    37966681.559
 198947115.185 6 153838533.375 6  38205699.719    38205696.359
 191545912.311 6 148115393.192 7  36784384.063    36784375.242
 196302382.319 7 151793416.645 7  37697808.648    37697805.656
 207646026.107 6 160565108.868 6  39876237.180    39876242.730
 192683996.516 7 148995502.272 7  37002919.750    37002917.391
 196869651.691 6 152232164.016 6  37806747.492    37806744.320
 190115545.718 6 147009367.505 7  36509695.297    36509689.629
 191682411.094 7 148220963.538 7  36810594.195    36810587.723
 18  5 16  3  5 23.0000000  0 11C02C05C04C08C01C10C13C09C06C03C07
 195912710.678 6 151492097.122 7  37622982.883    37622977.777
 206764980.362 5 159883785.938 6  39707059.281    39707055.402
 197702460.494 6 152876052.126 6  37966684.383    37966679.836
 198945404.641 6 153837210.677 6  38205371.328    38205367.883
 191545894.171 6 148115379.163 7  36784379.961    36784371.770
 196302337.220 7 151793381.767 7  37697800.281    37697796.988
 207644528.833 6 160563951.084 6  39875949.719    39875954.941
 192685318.025 7 148996524.140 7  37003173.719    37003171.355
 196871233.314 6 152233387.030 6  37807051.156    37807048.066
 190115526.681 6 147009352.786 7  36509691.453    36509685.645
 191682258.117 7 148220845.249 7  36810564.758    36810558.496
 18  5 16  3  5 24.0000000  0 11C02C05C04C08C01C10C13C09C06C03C07
 195912701.659 6 151492090.148 7  37622980.867    37622976.004
 206764972.114 5 159883779.563 5  39707057.656    39707053.918
 197702450.961 6 152876044.756 6  37966682.719    37966678.129
 198943694.162 6 153835888.020 6  38205042.820    38205039.004
 191545876.030 6 148115365.135 7  36784377.156    36784368.453
 196302292.007 7 151793346.801 7  37697791.484    37697788.270
 207643031.560 6 160562793.295 6  39875661.516    39875667.625
 192686639.690 7 148997546.136 7  37003427.523    37003425.234
 196872815.012 6 152234610.097 6  37807355.211    37807351.711
 190115507.652 6 147009338.074 7  36509688.188    36509682.168
 191682105.067 7 148220726.898 7  36810535.148    36810529.180
 18  5 16  3  5 25.0000000  0 11C02C05C04C08C01C10C13C09C06C03C07
 195912692.803 6 151492083.300 7  37622979.648    37622974.406
 206764964.069 5 159883773.341 5  39707055.938    39707052.203
 197702441.539 6 152876037.462 6  37966680.875    37966676.594
 198941983.861 6 153834565.502 6  38204713.813    38204710.715
 191545858.035 6 148115351.222 7  36784373.195    36784364.746
 196302246.874 7 151793311.908 7  37697782.914    37697779.762
 207641534.423 6 160561635.615 6  39875374.234    39875380.043
 192687961.673 7 148998568.378 7  37003681.227    37003678.609
 196874396.973 6 152235833.362 6  37807658.734    37807655.438
 190115488.802 6 147009323.492 7  36509684.508    36509679.227
 191681952.067 7 148220608.592 7  36810505.711    36810499.695
 18  5 16  3  5 26.0000000  0 11C02C05C04C08C01C10C13C09C06C03C07
 195912683.779 6 151492076.322 7  37622978.156    37622972.625
 206764955.867 5 159883766.998 5  39707053.813    39707050.859
 197702432.038 6 152876030.120 6  37966678.813    37966674.063
 198940273.466 6 153833242.916 6  38204385.469    38204382.305
 191545839.911 6 148115337.209 7  36784370.234    36784361.340
 196302201.565 7 151793276.878 7  37697774.133    37697771.090
 207640037.116 6 160560477.807 6  39875086.695    39875092.289
 192689283.578 7 148999590.560 7  37003935.023    37003932.660
 196875978.755 6 152237056.492 6  37807962.633    37807959.484
 190115469.798 6 147009308.798 7  36509680.352    36509675.219
 191681798.862 7 148220490.128 7  36810476.234    36810470.570
 18  5 16  3  5 27.0000000  0 11C02C05C04C08C01C10C13C09C06C03C07
 195912674.711 6 151492069.306 7  37622975.703    37622970.461
 206764947.580 5 159883760.577 5  39707052.453    39707049.332
 197702422.454 6 152876022.708 6  37966677.070    37966672.422
 198938563.056 6 153831920.319 6  38204057.297    38204053.719
 191545821.701 6 148115323.127 7  36784366.148    36784357.906
 196302156.050 7 151793241.685 7  37697765.492    37697762.008
 207638539.673 6 160559319.876 6  39874799.359    39874805.027
 192690605.594 7 149000612.818 7  37004188.664    37004186.645
 196877560.572 6 152238279.656 6  37808265.875    37808263.281
 190115450.731 6 147009294.050 7  36509677.266    36509671.688
 191681645.488 7 148220371.536 7  36810446.859    36810441.223
 18  5 16  3  5 28.0000000  0 11C02C05C04C08C01C10C13C09C06C03C07
 195912665.687 6 151492062.332 7  37622974.438    37622968.797
 206764939.348 6 159883754.207 6  39707050.992    39707047.754
 197702412.903 6 152876015.325 6  37966675.148    37966670.473
 198936852.745 6 153830597.804 6  38203729.063    38203725.297
 191545803.571 6 148115309.105 7  36784362.586    36784354.023
 196302110.530 7 151793206.486 7  37697756.977    37697753.559
 207637042.249 6 160558161.967 6  39874512.281    39874517.023
 192691927.775 7 149001635.210 7  37004442.734    37004440.438
 196879142.450 6 152239502.864 6  37808570.133    37808567.012
 190115431.690 6 147009279.331 7  36509673.875    36509667.738
 191681492.100 7 148220252.923 7  36810417.586    36810411.480
 18  5 16  3  5 29.0000000  0 11C02C05C04C08C01C10C13C09C06C03C07
 195912656.553 6 151492055.263 7  37622972.797    37622967.367
 206764931.032 6 159883747.772 5  39707049.398    39707045.719
 197702403.306 6 152876007.898 6  37966673.180    37966668.855
 198935142.395 6 153829275.251 6  38203400.570    38203396.996
 191545785.327 6 148115294.997 7  36784359.148    36784350.867
 196302064.817 7 151793171.144 7  37697747.594    37697745.043
 207635544.682 6 160557003.962 6  39874224.344    39874229.340
 192693250.000 7 149002657.641 7  37004696.758    37004694.301
 196880724.336 6 152240726.073 6  37808873.438    37808870.668
 190115412.606 6 147009264.575 7  36509670.141    36509664.168
 191681338.541 7 148220134.180 7  36810387.961    36810382.414
 18  5 16  3  5 30.0000000  0 11C02C05C04C08C01C10C13C09C06C03C07
 195912647.341 6 151492048.139 7  37622971.031    37622965.355
 206764922.634 5 159883741.282 5  39707048.219    39707044.473
 197702393.626 6 152876000.409 6  37966671.602    37966666.684
 198933431.977 6 153827952.645 6  38203072.172    38203067.980
 191545767.043 6 148115280.855 7  36784355.633    36784347.355
 196302018.983 7 151793135.698 7  37697738.992    37697736.254
 207634047.105 6 160555845.939 6  39873936.945    39873941.617
 192694572.290 7 149003680.120 7  37004950.477    37004948.488
 196882306.128 6 152241949.211 6  37809177.461    37809174.512
 190115393.428 6 147009249.746 7  36509666.156    36509660.426
 191681184.781 7 148220015.282 7  36810358.727    36810352.648
 18  5 16  3  5 31.0000000  0 11C02C05C04C08C01C10C13C09C06C03C07
 195912638.252 6 151492041.116 7  37622968.578    37622963.652
 206764914.332 5 159883734.868 5  39707046.227    39707042.715
 197702383.994 6 152875992.962 6  37966669.773    37966664.871
 198931721.721 6 153826630.172 6  38202743.680    38202739.988
 191545748.850 6 148115266.787 7  36784352.406    36784343.723
 196301973.112 7 151793100.223 7  37697729.984    37697727.422
 207632549.575 6 160554687.959 6  39873648.438    39873653.984
 192695894.824 7 149004702.786 7  37005204.688    37005202.398
 196883888.083 6 152243172.482 6  37809480.898    37809477.984
 190115374.346 6 147009234.990 7  36509662.391    36509656.578
 191681031.056 7 148219896.409 7  36810328.594    36810322.867
 18  5 16  3  5 32.0000000  0 11C02C05C04C08C01C10C13C09C06C03C07
 195912629.119 6 151492034.048 7  37622967.313    37622962.047
 206764905.955 5 159883728.397 5  39707045.117    39707041.016
 197702374.375 6 152875985.527 6  37966667.789    37966663.305
 198930011.507 6 153825307.731 6  38202415.070    38202411.500
 191545730.606 6 148115252.679 7  36784349.195    36784340.418
 196301927.187 7 151793064.708 7  37697721.719    37697718.305
 207631051.950 6 160553529.893 6  39873361.211    39873366.301
 192697217.440 7 149005725.514 7  37005458.742    37005456.188
 196885470.091 6 152244395.781 6  37809785.055    37809782.137
 190115355.246 6 147009220.220 7  36509658.805    36509653.242
 191680877.223 7 148219777.456 7  36810299.070    36810293.328
 18  5 16  3  5 33.0000000  0 11C02C05C04C08C01C10C13C09C06C03C07
 195912620.149 6 151492027.110 7  37622965.367    37622960.203
 206764897.854 5 159883722.137 5  39707043.633    39707039.688
 197702364.936 6 152875978.226 6  37966665.828    37966661.285
 198928301.544 6 153823985.482 6  38202086.266    38202082.590
 191545712.574 6 148115238.737 7  36784345.914    36784336.633
 196301881.335 7 151793029.249 7  37697712.008    37697709.836
 207629554.535 6 160552371.996 6  39873074.164    39873079.043
 192698540.396 7 149006748.509 7  37005712.641    37005710.230
 196887052.333 6 152245619.277 6  37810089.109    37810085.957
 190115336.359 6 147009205.613 7  36509655.070    36509649.672
 191680723.490 7 148219658.580 7  36810270.078    36810264.078
 18  5 16  3  5 34.0000000  0 11C02C05C04C08C01C10C13C09C06C03C07
 195912610.927 6 151492019.977 7  37622963.742    37622958.172
 206764889.446 5 159883715.638 5  39707041.219    39707038.027
 197702355.237 6 152875970.735 6  37966664.383    37966659.715
 198926591.317 6 153822663.022 6  38201758.742    38201754.363
 191545694.255 6 148115224.574 7  36784341.977    36784333.293
 196301835.091 6 151792993.490 7  37697703.523    37697700.586
 207628056.717 6 160551213.783 6  39872786.195    39872791.324
 192699863.169 7 149007771.361 7  37005966.594    37005964.324
 196888634.312 6 152246842.556 6  37810392.906    37810389.969
 190115317.161 6 147009190.767 7  36509651.188    36509646.133
 191680569.364 7 148219539.399 7  36810240.297    36810234.449
 18  5 16  3  5 35.0000000  0 11C02C05C04C08C01C10C13C09C06C03C07
 195912601.975 6 151492013.060 7  37622962.289    37622956.531
 206764881.297 6 159883709.331 5  39707040.344    39707036.703
 197702345.800 6 152875963.438 6  37966662.297    37966658.125
 198924881.352 6 153821340.772 6  38201430.453    38201426.188
 191545676.235 6 148115210.640 7  36784338.578    36784329.805
 196301789.074 7 151792957.905 7  37697694.469    37697691.844
 207626559.177 6 160550055.783 6  39872497.930    39872503.727
 192701186.382 7 149008794.547 7  37006220.617    37006218.598
 196890216.624 6 152248066.103 6  37810696.625    37810693.512
 190115298.244 6 147009176.137 7  36509647.359    36509642.379
 191680415.454 7 148219420.386 7  36810210.539    36810204.762
 18  5 16  3  5 36.0000000  0 11C02C05C04C08C01C10C13C09C06C03C07
 195912592.790 6 151492005.951 7  37622960.375    37622954.672
 206764872.942 6 159883702.857 5  39707038.867    39707035.492
 197702336.116 6 152875955.942 6  37966660.602    37966656.043
 198923171.265 6 153820018.418 6  38201101.711    38201097.621
 191545657.955 6 148115196.501 7  36784334.906    36784326.555
 196301742.730 7 151792922.070 7  37697685.789    37697682.695
 207625061.374 6 160548897.590 6  39872211.016    39872216.117
 192702509.470 7 149009817.643 7  37006474.984    37006472.820
 196891798.756 6 152249289.501 6  37811000.813    37810997.363
 190115279.101 6 147009161.339 7  36509644.281    36509638.219
 191680261.195 7 148219301.106 7  36810181.484    36810175.137
 18  5 16  3  5 37.0000000  0 11C02C05C04C08C01C10C13C09C06C03C07
 195912583.931 6 151491999.099 7  37622958.313    37622953.348
 206764864.904 5 159883696.642 5  39707036.250    39707033.477
 197702326.810 6 152875948.746 6  37966658.953    37966654.238
 198921461.534 6 153818696.350 6  38200773.297    38200769.223
 191545640.047 6 148115182.655 7  36784330.984    36784322.887
 196301696.649 7 151792886.431 7  37697677.141    37697674.344
 207623563.903 6 160547739.651 6  39871923.586    39871928.598
 192703833.039 7 149010841.111 7  37006729.086    37006727.188
 196893381.262 6 152250513.189 6  37811304.430    37811301.219
 190115260.303 6 147009146.800 7  36509640.648    36509634.914
 191680107.234 7 148219182.055 7  36810151.477    36810145.520
 18  5 16  3  5 38.0000000  0 11C02C05C04C08C01C10C13C09C06C03C07
 195912575.130 6 151491992.297 7  37622956.984    37622951.488
 206764856.850 5 159883690.407 5  39707035.750    39707032.199
 197702317.488 6 152875941.527 6  37966657.109    37966651.996
 198919751.886 6 153817374.337 6  38200445.398    38200440.992
 191545622.148 6 148115168.813 7  36784327.906    36784319.598
 196301650.497 7 151792850.749 7  37697667.914    37697665.277
 207622066.402 6 160546581.696 6  39871635.656    39871641.090
 192705156.750 7 149011864.689 7  37006983.461    37006980.906
 196894963.795 6 152251736.902 6  37811608.203    37811604.875
 190115241.519 6 147009132.272 7  36509636.844    36509631.375
 191679953.177 7 148219062.928 7  36810121.906    36810116.090
 18  5 16  3  5 39.0000000  0 11C02C05C04C08C01C10C13C09C06C03C07
 195912565.941 6 151491985.189 7  37622955.141    37622950.004
 206764848.508 5 159883683.961 6  39707033.930    39707030.055
 197702307.815 6 152875934.053 6  37966655.508    37966650.426
 198918041.951 6 153816052.110 6  38200116.547    38200112.617
 191545603.907 6 148115154.701 7  36784324.570    36784316.438
 196301603.920 7 151792814.733 7  37697659.469    37697656.535
 207620568.563 6 160545423.472 6  39871348.016    39871353.387
 192706480.265 7 149012888.108 7  37007237.391    37007235.598
 196896546.051 6 152252960.401 6  37811912.188    37811909.160
 190115222.390 6 147009117.483 7  36509632.828    36509627.559
 191679798.726 7 148218943.498 7  36810092.453    36810086.422
 18  5 16  3  5 40.0000000  0 11C02C05C04C08C01C10C13C09C06C03C07
 195912556.789 6 151491978.115 7  37622953.305    37622947.992
 206764840.151 5 159883677.501 6  39707032.672    39707028.613
 197702298.222 6 152875926.637 6  37966653.211    37966648.625
 198916332.107 6 153814729.956 6  38199788.375    38199784.227
 191545585.720 6 148115140.641 7  36784321.281    36784312.332
 196301557.307 6 151792778.691 7  37697649.922    37697647.250
 207619070.717 6 160544265.240 6  39871060.570    39871065.805
 192707803.945 7 149013911.664 7  37007491.695    37007489.359
 196898128.456 6 152254184.015 6  37812215.789    37812212.820
 190115203.339 6 147009102.749 7  36509629.055    36509624.086
 191679644.198 7 148218824.009 7  36810062.711    36810056.785
 18  5 16  3  5 41.0000000  0 11C02C05C04C08C01C10C13C09C06C03C07
 195912547.860 6 151491971.213 7  37622951.922    37622946.371
 206764832.061 5 159883671.252 6  39707030.906    39707027.125
 197702288.787 6 152875919.339 6  37966651.563    37966647.285
 198914622.485 6 153813407.972 6  38199460.461    38199456.176
 191545567.705 6 148115126.713 7  36784317.648    36784309.105
 196301510.768 7 151792742.695 7  37697641.633    37697638.645
 207617572.966 6 160543107.085 6  39870773.414    39870777.996
 192709127.916 7 149014935.442 7  37007745.789    37007743.891
 196899711.053 6 152255407.778 6  37812519.820    37812516.844
 190115184.451 6 147009088.147 7  36509625.750    36509620.477
 191679489.768 7 148218704.588 7  36810033.164    36810027.152
 18  5 16  3  5 42.0000000  0 11C02C05C04C08C01C10C13C09C06C03C07
 195912538.917 6 151491964.296 7  37622950.102    37622944.449
 206764823.887 5 159883664.933 5  39707029.391    39707025.406
 197702279.353 6 152875912.043 6  37966649.789    37966645.246
 198912912.873 6 153812085.984 6  38199131.883    38199127.824
 191545549.718 6 148115112.805 7  36784314.289    36784305.652
 196301464.200 7 151792706.683 7  37697632.539    37697629.449
 207616075.286 6 160541948.987 6  39870485.313    39870490.523
 192710452.056 7 149015959.353 7  37008000.086    37007998.012
 196901293.691 6 152256631.572 6  37812823.234    37812820.637
 190115165.594 6 147009073.564 7  36509622.266    36509616.652
 191679335.299 7 148218585.146 7  36810003.328    36809997.391
 18  5 16  3  5 43.0000000  0 11C02C05C04C08C01C10C13C09C06C03C07
 195912530.031 6 151491957.420 7  37622947.891    37622942.898
 206764815.836 5 159883658.706 5  39707027.914    39707023.883
 197702270.065 6 152875904.861 6  37966647.938    37966642.969
 198911203.434 6 153810764.139 6  38198803.133    38198799.664
 191545531.795 6 148115098.949 7  36784310.594    36784302.195
 196301417.620 7 151792670.666 7  37697623.633    37697620.465
 207614577.610 6 160540790.892 6  39870197.641    39870202.848
 192711776.430 7 149016983.445 7  37008254.289    37008251.922
 196902876.449 6 152257855.457 6  37813128.102    37813124.891
 190115146.799 6 147009059.029 7  36509619.094    36509613.156
 191679180.794 7 148218465.672 7  36809973.586    36809967.922
 18  5 16  3  5 44.0000000  0 11C02C05C04C08C01C10C13C09C06C03C07
 195912520.925 6 151491950.385 7  37622946.336    37622941.141
 206764807.537 5 159883652.284 5  39707026.102    39707022.215
 197702260.497 6 152875897.462 6  37966646.148    37966641.531
 198909493.786 6 153809442.130 6  38198474.953    38198470.895
 191545513.651 6 148115084.917 7  36784306.977    36784299.059
 196301370.696 7 151792634.382 7  37697614.766    37697611.617
 207613079.634 6 160539632.560 6  39869910.148    39869915.313
 192713100.665 7 149018007.422 7  37008508.633    37008506.473
 196904459.063 6 152259079.237 6  37813431.477    37813428.613
 190115127.773 6 147009044.320 7  36509615.266    36509609.543
 191679025.959 7 148218345.939 7  36809944.328    36809938.047
 18  5 16  3  5 45.0000000  0 11C02C05C04C08C01C10C13C09C06C03C07
 195912511.920 6 151491943.415 7  37622944.852    37622939.352
 206764799.365 5 159883645.961 5  39707024.125    39707020.574
 197702251.015 6 152875890.127 6  37966644.555    37966639.809
 198907784.281 6 153808120.235 6  38198146.547    38198142.512
 191545495.604 6 148115070.959 7  36784303.305    36784295.203
 196301323.808 7 151792598.128 7  37697605.930    37697602.316
 207611581.798 6 160538474.337 6  39869622.617    39869627.672
 192714425.131 7 149019031.583 7  37008763.219    37008760.840
 196906041.765 6 152260303.075 6  37813735.586    37813732.367
 190115108.862 6 147009029.694 7  36509611.375    36509605.707
 191678871.155 7 148218226.235 7  36809914.547    36809908.277
 18  5 16  3  5 46.0000000  0 11C02C05C04C08C01C10C13C09C06C03C07
 195912502.807 6 151491936.371 7  37622943.141    37622937.730
 206764791.026 5 159883639.512 5  39707023.008    39707018.867
 197702241.463 6 152875882.740 6  37966642.680    37966637.625
 198906074.713 6 153806798.288 6  38197818.266    38197814.516
 191545477.488 6 148115056.947 7  36784300.023    36784291.801
 196301276.729 7 151792561.717 7  37697596.375    37697593.254
 207610083.775 6 160537315.962 6  39869334.031    39869339.883
 192715749.662 7 149020055.796 7  37009017.875    37009015.363
 196907624.433 6 152261526.889 6  37814039.711    37814036.305
 190115089.829 6 147009014.980 7  36509607.500    36509602.039
 191678716.152 7 148218106.378 7  36809884.773    36809878.293
 18  5 16  3  5 47.0000000  0 11C02C05C04C08C01C10C13C09C06C03C07
 195912493.812 6 151491929.417 7  37622941.359    37622936.051
 206764782.874 5 159883633.207 6  39707020.680    39707017.574
 197702232.012 6 152875875.429 6  37966640.859    37966635.789
 198904365.337 6 153805476.492 6  38197490.258    38197486.148
 191545459.455 6 148115043.005 7  36784296.680    36784288.418
 196301229.654 7 151792525.316 7  37697587.789    37697584.313
 207608585.865 6 160536157.685 6  39869046.648    39869052.043
 192717074.381 7 149021080.152 7  37009271.594    37009269.430
 196909207.246 6 152262750.816 6  37814343.461    37814340.617
 190115070.904 6 147009000.344 7  36509603.984    36509598.535
 191678561.176 7 148217986.541 7  36809854.750    36809848.348
 18  5 16  3  5 48.0000000  0 11C02C05C04C08C01C10C13C09C06C03C07
 195912484.719 6 151491922.394 7  37622938.930    37622934.168
 206764774.560 6 159883626.778 6  39707019.195    39707016.148
 197702222.435 6 152875868.025 6  37966639.359    37966634.012
 198902655.837 6 153804154.592 6  38197162.055    38197157.910
 191545441.359 6 148115029.013 7  36784293.617    36784284.961
 196301182.421 7 151792488.790 7  37697578.500    37697575.688
 207607087.801 6 160534999.285 6  39868759.344    39868764.527
 192718399.183 7 149022104.575 7  37009526.414    37009524.332
 196910790.061 6 152263974.743 6  37814647.570    37814644.324
 190115051.907 6 147008985.654 7  36509600.664    36509594.793
 191678406.035 7 148217866.572 7  36809824.836    36809818.898
 18  5 16  3  5 49.0000000  0 11C02C05C04C08C01C10C13C09C06C03C07
 195912475.767 6 151491915.469 7  37622937.555    37622932.559
 206764766.420 6 159883620.492 5  39707017.281    39707014.438
 197702213.022 6 152875860.744 6  37966637.344    37966631.969
 198900946.557 6 153802832.869 6  38196833.688    38196829.891
 191545423.365 6 148115015.101 7  36784289.813    36784281.332
 196301135.195 7 151792452.271 7  37697568.945    37697566.301
 207605589.850 6 160533840.971 6  39868471.336    39868476.992
 192719724.217 7 149023129.171 7  37009780.844    37009778.637
 196912372.998 6 152265198.769 6  37814951.516    37814948.488
 190115033.045 6 147008971.070 7  36509596.703    36509591.207
 191678250.915 7 148217746.622 7  36809795.617    36809789.074
 18  5 16  3  5 50.0000000  0 11C02C05C04C08C01C10C13C09C06C03C07
 195912466.638 6 151491908.407 7  37622935.969    37622930.934
 206764758.148 6 159883614.095 6  39707015.984    39707012.828
 197702203.512 6 152875853.390 6  37966635.055    37966630.344
 198899237.217 6 153801511.099 6  38196505.555    38196501.383
 191545405.264 6 148115001.102 7  36784286.195    36784277.531
 196301087.814 7 151792415.636 7  37697560.039    37697557.480
 207604091.728 6 160532682.531 6  39868183.992    39868189.012
 192721049.294 7 149024153.807 7  37010035.234    37010033.211
 196913955.863 6 152266422.735 6  37815255.609    37815252.125
 190115014.048 6 147008956.375 7  36509593.164    36509587.762
 191678095.609 7 148217626.529 7  36809765.766    36809759.559
 18  5 16  3  5 51.0000000  0 11C02C05C04C08C01C10C13C09C06C03C07
 195912457.540 6 151491901.371 7  37622933.633    37622928.969
 206764749.817 6 159883607.647 5  39707014.508    39707011.066
 197702193.923 6 152875845.974 6  37966633.141    37966628.586
 198897527.868 6 153800189.319 6  38196177.000    38196173.406
 191545387.125 6 148114987.074 7  36784283.266    36784274.074
 196301040.302 7 151792378.902 7  37697550.984    37697548.492
 207602593.580 6 160531524.075 6  39867896.109    39867901.344
 192722374.429 7 149025178.488 7  37010289.836    37010287.535
 196915538.765 6 152267646.740 6  37815558.977    37815556.219
 190114995.029 6 147008941.668 7  36509589.406    36509584.039
 191677940.151 7 148217506.319 7  36809735.867    36809729.480
 18  5 16  3  5 52.0000000  0 11C02C05C04C08C01C10C13C09C06C03C07
 195912448.388 6 151491894.291 7  37622931.766    37622926.934
 206764741.516 6 159883601.223 6  39707013.266    39707009.582
 197702184.353 6 152875838.581 6  37966630.828    37966626.531
 198895818.553 6 153798867.567 6  38195848.805    38195845.102
 191545368.990 6 148114973.045 7  36784279.414    36784270.609
 196300992.698 7 151792342.088 7  37697542.313    37697539.254
 207601095.379 6 160530365.575 6  39867607.898    39867613.711
 192723699.723 7 149026203.290 7  37010544.273    37010541.992
 196917121.700 6 152268870.765 6  37815863.008    37815860.289
 190114976.029 6 147008926.974 7  36509585.633    36509580.559
 191677784.627 7 148217386.059 7  36809706.086    36809699.672
 18  5 16  3  5 53.0000000  0 11C02C05C04C08C01C10C13C09C06C03C07
 195912439.410 6 151491887.344 7  37622930.914    37622925.277
 206764733.394 5 159883594.941 6  39707011.383    39707008.066
 197702174.958 6 152875831.314 6  37966629.508    37966624.750
 198894109.448 6 153797545.981 6  38195520.891    38195516.949
 191545350.992 6 148114959.128 7  36784275.867    36784267.074
 196300945.177 7 151792305.338 7  37697533.180    37697530.246
 207599597.275 6 160529207.141 6  39867320.953    39867326.262
 192725025.266 7 149027228.283 7  37010799.016    37010796.859
 196918704.831 6 152270094.941 6  37816167.539    37816164.449
 190114957.148 6 147008912.376 7  36509582.492    36509576.883
 191677629.158 7 148217265.842 7  36809675.828    36809669.973
 18  5 16  3  5 54.0000000  0 11C02C05C04C08C01C10C13C09C06C03C07
 195912430.315 6 151491880.320 7  37622929.023    37622923.699
 206764725.062 5 159883588.498 6  39707009.492    39707006.926
 197702165.371 6 152875823.902 6  37966627.617    37966623.039
 198892400.285 6 153796224.351 6  38195191.969    38195188.695
 191545332.840 6 148114945.094 7  36784272.523    36784263.695
 196300897.382 7 151792268.383 7  37697523.406    37697520.395
 207598099.039 6 160528048.614 6  39867032.875    39867038.277
 192726350.827 7 149028253.291 7  37011053.523    37011051.301
 196920287.864 6 152271319.040 6  37816471.508    37816468.277
 190114938.129 6 147008897.673 7  36509578.734    36509572.820
 191677473.444 7 148217145.434 7  36809646.133    36809640.184
 18  5 16  3  5 55.0000000  0 11C02C05C04C08C01C10C13C09C06C03C07
 195912421.233 6 151491873.293 7  37622927.359    37622921.926
 206764716.828 5 159883582.134 6  39707007.422    39707004.859
 197702155.850 6 152875816.540 6  37966625.188    37966621.105
 198890691.130 6 153794902.723 6  38194864.430    38194860.441
 191545314.765 6 148114931.117 7  36784269.141    36784260.320
 196300849.593 7 151792231.427 7  37697514.492    37697511.383
 207596600.798 6 160526890.082 6  39866744.727    39866750.699
 192727676.539 7 149029278.408 7  37011308.273    37011306.352
 196921870.995 6 152272543.211 6  37816776.102    37816771.988
 190114919.186 6 147008883.025 7  36509575.477    36509569.227
 191677317.734 7 148217025.027 7  36809615.930    36809609.879
 18  5 16  3  5 56.0000000  0 11C02C05C04C08C01C10C13C09C06C03C07
 195912412.266 6 151491866.355 7  37622925.430    37622920.328
 206764708.636 5 159883575.799 6  39707006.047    39707003.324
 197702146.480 6 152875809.290 6  37966624.063    37966619.379
 198888982.201 6 153793581.279 6  38194535.938    38194532.293
 191545296.820 6 148114917.242 7  36784265.773    36784256.746
 196300801.815 7 151792194.486 7  37697505.406    37697502.121
 207595102.690 6 160525731.649 6  39866457.336    39866463.129
 192729002.528 7 149030303.744 7  37011562.359    37011560.734
 196923454.243 6 152273767.476 6  37817079.852    37817076.066
 190114900.343 6 147008868.451 7  36509571.406    36509565.754
 191677162.028 7 148216904.624 7  36809586.117    36809580.324
 18  5 16  3  5 57.0000000  0 11C02C05C04C08C01C10C13C09C06C03C07
 195912403.261 6 151491859.395 7  37622923.688    37622918.945
 206764700.451 5 159883569.466 6  39707005.609    39707002.211
 197702137.020 6 152875801.973 6  37966623.148    37966617.871
 198887273.277 6 153792259.827 6  38194207.938    38194204.020
 191545278.828 6 148114903.331 7  36784262.133    36784253.781
 196300753.896 7 151792157.426 7  37697496.086    37697493.063
 207593604.497 6 160524573.151 6  39866169.305    39866175.133
 192730328.617 7 149031329.159 7  37011817.508    37011815.223
 196925037.565 6 152274991.803 6  37817383.547    37817380.383
 190114881.455 6 147008853.846 7  36509567.773    36509562.172
 191677006.214 7 148216784.137 7  36809556.328    36809550.469
 18  5 16  3  5 58.0000000  0 11C02C05C04C08C01C10C13C09C06C03C07
 195912394.021 6 151491852.241 7  37622922.000    37622916.715
 206764692.046 5 159883562.975 6  39707003.227    39707000.539
 197702127.379 6 152875794.520 6  37966620.258    37966615.781
 198885564.156 6 153790938.224 6  38193879.344    38193875.465
 191545260.634 6 148114889.262 7  36784258.969    36784249.984
 196300705.713 7 151792120.164 7  37697487.172    37697484.063
 207592106.017 6 160523414.435 6  39865881.609    39865887.250
 192731654.620 7 149032354.499 7  37012072.164    37012069.813
 196926620.674 6 152276215.957 6  37817687.703    37817684.133
 190114862.376 6 147008839.092 7  36509564.086    36509558.477
 191676850.076 7 148216663.404 7  36809526.484    36809520.148
 18  5 16  3  5 59.0000000  0 11C02C05C04C08C01C10C13C09C06C03C07
 195912384.915 6 151491845.201 7  37622919.906    37622914.969
 206764683.724 5 159883556.545 5  39707002.313    39706999.090
 197702117.847 6 152875787.151 6  37966618.023    37966614.238
 198883855.192 6 153789616.744 6  38193551.258    38193547.500
 191545242.513 6 148114875.253 7  36784254.922    36784246.684
 196300657.515 7 151792082.897 7  37697477.617    37697474.707
 207590607.631 6 160522255.781 6  39865594.641    39865599.770
 192732980.808 7 149033379.998 7  37012326.648    37012324.348
 196928203.916 6 152277440.216 6  37817991.914    37817988.535
 190114843.388 6 147008824.412 7  36509560.516    36509555.227
 191676693.961 7 148216542.685 7  36809496.531    36809490.305
 18  5 16  3  6  0.0000000  0 11C02C05C04C08C01C10C13C09C06C03C07
 195912375.894 6 151491838.227 7  37622918.359    37622912.902
 206764675.552 5 159883550.228 6  39707000.336    39706997.148
 197702108.381 6 152875779.828 6  37966616.461    37966612.035
 198882146.357 6 153788295.367 6  38193222.695    38193219.195
 191545224.504 6 148114861.328 7  36784251.906    36784243.051
 196300609.353 7 151792045.657 7  37697468.484    37697465.387
 207589109.303 6 160521097.178 6  39865306.688    39865312.125
 192734307.269 7 149034405.705 7  37012581.711    37012579.523
 196929787.330 6 152278664.615 6  37818295.531    37818292.469
 190114824.491 6 147008809.796 7  36509557.086    36509551.508
 191676537.850 7 148216421.970 7  36809466.461    36809459.930
 18  5 16  3  6  1.0000000  0 11C02C05C04C08C01C10C13C09C06C03C07
 195912366.854 6 151491831.233 7  37622916.680    37622911.203
 206764667.373 5 159883543.896 5  39706998.641    39706995.695
 197702098.945 6 152875772.536 6  37966615.000    37966610.129
 198880437.614 6 153786974.062 6  38192895.070    38192891.238
 191545206.528 6 148114847.425 7  36784248.188    36784239.402
 196300561.125 7 151792008.363 7  37697459.008    37697455.930
 207587610.979 6 160519938.577 6  39865018.844    39865024.000
 192735633.874 7 149035431.516 7  37012836.211    37012834.195
 196931370.806 6 152279889.060 6  37818599.398    37818596.840
 190114805.667 6 147008795.240 7  36509553.719    36509547.582
 191676381.685 7 148216301.211 7  36809437.016    36809430.273
 18  5 16  3  6  2.0000000  0 11C02C05C04C08C01C10C13C09C06C03C07
 195912357.796 6 151491824.232 7  37622914.766    37622909.676
 206764659.151 6 159883537.536 5  39706997.109    39706994.363
 197702089.461 6 152875765.206 6  37966613.141    37966608.660
 198878728.825 6 153785652.719 6  38192566.750    38192563.133
 191545188.486 6 148114833.475 7  36784244.578    36784236.113
 196300512.732 7 151791970.946 7  37697450.164    37697446.617
 207586112.548 6 160518779.892 6  39864730.758    39864736.418
 192736960.525 7 149036457.365 7  37013090.938    37013088.660
 196932954.243 6 152281113.470 6  37818903.945    37818901.039
 190114786.741 6 147008780.602 7  36509549.805    36509543.922
 191676225.386 7 148216180.350 7  36809406.508    36809400.629
 18  5 16  3  6  3.0000000  0 11C02C05C04C08C01C10C13C09C06C03C07
 195912348.713 6 151491817.213 7  37622913.289    37622907.914
 206764650.888 6 159883531.150 5  39706995.859    39706992.695
 197702079.970 6 152875757.867 6  37966611.477    37966606.414
 198877020.098 6 153784331.429 6  38192238.648    38192235.520
 191545170.446 6 148114819.519 7  36784241.391    36784232.844
 196300464.288 7 151791933.491 7  37697440.180    37697437.523
 207584614.042 6 160517621.154 6  39864443.031    39864448.723
 192738287.307 7 149037483.311 7  37013345.672    37013343.438
 196934537.732 6 152282337.929 6  37819208.047    37819204.773
 190114767.782 6 147008765.949 7  36509546.211    36509540.520
 191676068.951 7 148216059.384 7  36809376.547    36809370.434
 18  5 16  3  6  4.0000000  0 11C02C05C04C08C01C10C13C09C06C03C07
 195912339.373 6 151491809.982 7  37622911.180    37622906.336
 206764642.383 6 159883524.568 5  39706993.609    39706991.012
 197702070.235 6 152875750.339 6  37966609.789    37966604.977
 198875311.155 6 153783009.962 6  38191910.633    38191906.895
 191545152.180 6 148114805.394 7  36784237.984    36784229.254
 196300415.484 7 151791895.752 7  37697430.891    37697428.180
 207583115.295 6 160516462.228 6  39864155.156    39864160.965
 192739614.000 7 149038509.196 7  37013600.313    37013598.398
 196936121.030 6 152283562.235 6  37819511.961    37819509.555
 190114748.645 6 147008751.156 7  36509542.133    36509536.613
 191675912.246 7 148215938.207 7  36809346.430    36809340.441
 18  5 16  3  6  5.0000000  0 11C02C05C04C08C01C10C13C09C06C03C07
 195912330.344 6 151491803.002 7  37622909.438    37622904.473
 206764634.181 6 159883518.229 5  39706992.594    39706989.117
 197702060.781 6 152875743.023 6  37966607.773    37966602.707
 198873602.514 6 153781688.728 6  38191582.000    38191578.965
 191545134.139 6 148114791.444 7  36784234.664    36784225.563
 196300366.853 7 151791858.141 7  37697421.797    37697418.555
 207581616.781 6 160515303.484 6  39863867.789    39863872.992
 192740941.081 7 149039535.377 7  37013855.602    37013853.512
 196937704.631 6 152284786.770 6  37819816.172    37819813.242
 190114729.741 6 147008736.537 7  36509538.672    36509532.801
 191675755.676 7 148215817.136 7  36809315.984    36809310.160
 18  5 16  3  6  6.0000000  0 11C02C05C04C08C01C10C13C09C06C03C07
 195912321.089 6 151491795.843 7  37622907.813    37622902.590
 206764625.789 5 159883511.747 5  39706990.953    39706987.688
 197702051.175 6 152875735.596 6  37966606.266    37966601.012
 198871893.780 6 153780367.428 6  38191254.180    38191250.699
 191545115.997 6 148114777.419 7  36784230.820    36784222.008
 196300318.019 7 151791820.383 7  37697412.313    37697409.590
 207580118.086 6 160514144.604 6  39863579.594    39863585.352
 192742268.159 7 149040561.561 7  37014109.883    37014108.344
 196939288.107 6 152286011.212 6  37820120.727    37820117.027
 190114710.695 6 147008721.807 7  36509534.617    36509529.293
 191675598.889 7 148215695.901 7  36809286.156    36809280.207
 18  5 16  3  6  7.0000000  0 11C02C05C04C08C01C10C13C09C06C03C07
 195912311.857 6 151491788.705 7  37622906.148    37622900.910
 206764617.364 6 159883505.229 5  39706988.758    39706986.371
 197702041.534 6 152875728.137 6  37966604.063    37966599.449
 198870185.062 6 153779046.140 6  38190925.953    38190922.160
 191545097.790 6 148114763.338 7  36784227.711    36784219.047
 196300269.075 7 151791782.532 7  37697402.969    37697399.984
 207578619.352 6 160512985.692 6  39863292.047    39863297.434
 192743595.300 7 149041587.785 7  37014364.984    37014362.910
 196940871.647 6 152287235.696 6  37820424.313    37820421.293
 190114691.612 6 147008707.060 7  36509531.258    36509525.414
 191675441.982 7 148215574.576 7  36809256.164    36809249.844
 18  5 16  3  6  8.0000000  0 11C02C05C04C08C01C10C13C09C06C03C07
 195912302.468 6 151491781.443 7  37622904.344    37622899.164
 206764608.861 5 159883498.652 5  39706986.953    39706984.551
 197702031.780 6 152875720.592 6  37966601.938    37966597.531
 198868476.284 6 153777724.804 6  38190597.922    38190593.879
 191545079.482 6 148114749.183 7  36784224.297    36784215.184
 196300219.907 7 151791744.506 7  37697393.695    37697390.469
 207577120.471 6 160511826.658 6  39863004.648    39863009.879
 192744922.487 7 149042614.055 7  37014619.992    37014617.750
 196942455.080 6 152288460.104 6  37820728.836    37820725.414
 190114672.420 6 147008692.223 7  36509527.828    36509521.695
 191675284.889 7 148215453.095 7  36809225.516    36809219.770
 18  5 16  3  6  9.0000000  0 11C02C05C04C08C01C10C13C09C06C03C07
 195912293.480 6 151491774.497 7  37622902.859    37622897.414
 206764600.698 6 159883492.330 5  39706985.969    39706982.684
 197702022.418 6 152875713.355 6  37966600.336    37966595.660
 198866767.871 6 153776403.753 6  38190269.828    38190266.047
 191545061.555 6 148114735.318 7  36784219.984    36784211.906
 196300171.066 7 151791706.744 7  37697384.148    37697381.133
 207575621.940 6 160510667.897 6  39862716.930    39862721.918
 192746250.161 7 149043640.688 7  37014874.930    37014872.844
 196944038.939 6 152289684.845 6  37821033.039    37821029.527
 190114653.630 6 147008677.693 7  36509524.195    36509518.613
 191675128.059 7 148215331.825 7  36809195.555    36809189.586
 18  5 16  3  6 10.0000000  0 11C02C05C04C08C01C10C13C09C06C03C07
 195912284.400 6 151491767.468 7  37622900.984    37622896.184
 206764592.453 5 159883485.957 5  39706984.336    39706981.242
 197702012.959 6 152875706.043 6  37966598.672    37966593.828
 198865059.483 6 153775082.725 6  38189941.820    38189937.809
 191545043.578 6 148114721.412 7  36784216.586    36784208.215
 196300122.052 7 151791668.840 7  37697374.641    37697371.363
 207574123.310 6 160509509.060 6  39862428.398    39862434.113
 192747577.890 7 149044667.371 7  37015130.000    37015127.703
 196945622.770 6 152290909.558 6  37821337.336    37821333.418
 190114634.735 6 147008663.072 7  36509520.281    36509514.711
 191674971.068 7 148215210.431 7  36809165.328    36809159.477
 18  5 16  3  6 11.0000000  0 11C02C05C04C08C01C10C13C09C06C03C07
 195912275.317 6 151491760.446 7  37622898.984    37622893.789
 206764584.179 5 159883479.566 5  39706982.492    39706979.883
 197702003.465 6 152875698.693 6  37966596.516    37966592.328
 198863351.137 6 153773761.725 6  38189614.070    38189609.875
 191545025.558 6 148114707.480 7  36784213.516    36784205.012
 196300072.883 7 151791630.825 7  37697365.203    37697362.090
 207572624.594 6 160508350.163 6  39862141.063    39862146.250
 192748905.732 7 149045694.148 7  37015384.789    37015382.328
 196947206.617 6 152292134.291 6  37821641.500    37821637.684
 190114615.834 6 147008648.450 7  36509516.539    36509511.398
 191674813.992 7 148215088.973 7  36809135.430    36809129.238
 18  5 16  3  6 12.0000000  0 11C02C05C04C08C01C10C13C09C06C03C07
 195912266.156 6 151491753.367 7  37622896.969    37622892.441
 206764575.807 5 159883473.096 5  39706980.797    39706978.367
 197701993.881 6 152875691.279 6  37966595.008    37966590.113
 198861642.684 6 153772440.639 6  38189285.563    38189281.891
 191545007.418 6 148114693.446 7  36784209.883    36784201.516
 196300023.563 7 151791592.677 7  37697356.039    37697352.777
 207571125.713 6 160507191.135 6  39861853.625    39861858.871
 192750233.597 7 149046720.937 7  37015639.750    37015637.500
 196948790.405 6 152293358.972 6  37821945.344    37821941.832
 190114596.822 6 147008633.746 7  36509513.195    36509507.434
 191674656.686 7 148214967.329 7  36809104.945    36809098.863
 18  5 16  3  6 13.0000000  0 11C02C05C04C08C01C10C13C09C06C03C07
 195912257.023 6 151491746.302 7  37622895.391    37622890.563
 206764567.576 6 159883466.724 5  39706980.047    39706976.703
 197701984.405 6 152875683.953 6  37966592.750    37966588.059
 198859934.424 6 153771119.699 6  38188956.875    38188953.969
 191544989.429 6 148114679.538 7  36784206.641    36784198.070
 196299974.270 7 151791554.555 7  37697346.273    37697343.105
 207569627.034 6 160506032.259 6  39861565.406    39861571.172
 192751561.731 7 149047747.935 7  37015895.289    37015892.613
 196950374.377 6 152294583.800 6  37822249.406    37822245.969
 190114577.949 6 147008619.154 7  36509509.180    36509503.762
 191674499.450 7 148214845.745 7  36809074.625    36809069.113
 18  5 16  3  6 14.0000000  0 11C02C05C04C08C01C10C13C09C06C03C07
 195912248.051 6 151491739.364 7  37622893.797    37622888.902
 206764559.372 5 159883460.383 5  39706978.461    39706974.984
 197701975.008 6 152875676.688 6  37966591.070    37966586.289
 198858226.262 6 153769798.843 6  38188629.250    38188626.020
 191544971.496 6 148114665.672 7  36784202.922    36784194.551
 196299924.960 7 151791516.428 7  37697337.148    37697333.902
 207568128.290 6 160504873.330 6  39861277.414    39861283.000
 192752890.029 7 149048775.052 7  37016150.102    37016147.680
 196951958.439 6 152295808.693 6  37822553.430    37822550.379
 190114559.124 6 147008604.594 7  36509506.164    36509500.355
 191674342.194 7 148214724.143 7  36809044.898    36809038.602
 18  5 16  3  6 15.0000000  0 11C02C05C04C08C01C10C13C09C06C03C07
 195912238.979 6 151491732.346 7  37622892.805    37622886.918
 206764551.199 5 159883454.057 5  39706977.133    39706973.539
 197701965.600 6 152875669.416 6  37966589.305    37966584.453
 198856518.072 6 153768477.961 6  38188301.656    38188297.910
 191544953.528 6 148114651.780 7  36784199.625    36784191.250
 196299875.486 7 151791478.179 7  37697327.211    37697324.234
 207566629.557 6 160503714.413 6  39860989.133    39860995.293
 192754218.449 7 149049802.266 7  37016404.906    37016402.645
 196953542.474 6 152297033.569 6  37822857.859    37822854.727
 190114540.267 6 147008590.016 7  36509502.141    36509496.785
 191674184.797 7 148214602.431 7  36809014.391    36809008.523
 18  5 16  3  6 16.0000000  0 11C02C05C04C08C01C10C13C09C06C03C07
 195912229.742 6 151491725.202 7  37622891.125    37622885.078
 206764542.795 6 159883447.558 5  39706975.289    39706971.801
 197701955.991 6 152875661.982 6  37966587.063    37966582.402
 198854809.825 6 153767157.040 6  38187973.367    38187969.859
 191544935.392 6 148114637.756 7  36784196.320    36784187.543
 196299825.800 6 151791439.766 7  37697318.000    37697315.082
 207565130.521 6 160502555.259 6  39860701.281    39860707.133
 192755546.825 7 149050829.449 7  37016660.234    37016658.129
 196955126.438 6 152298258.386 6  37823161.758    37823158.637
 190114521.242 6 147008575.305 7  36509498.883    36509493.051
 191674027.178 7 148214480.553 7  36808984.531    36808978.191
 18  5 16  3  6 17.0000000  0 11C02C05C04C08C01C10C13C09C06C03C07
 195912220.751 6 151491718.244 7  37622888.867    37622883.254
 206764534.608 6 159883441.234 5  39706973.594    39706970.297
 197701946.643 6 152875654.756 6  37966585.578    37966581.078
 198853101.834 6 153765836.313 6  38187645.727    38187641.699
 191544917.508 6 148114623.929 7  36784192.773    36784184.297
 196299776.255 7 151791401.456 7  37697308.430    37697305.496
 207563631.780 6 160501396.332 6  39860413.242    39860419.219
 192756875.582 7 149051856.926 7  37016915.234    37016913.059
 196956710.695 6 152299483.434 6  37823466.102    37823462.844
 190114502.477 6 147008560.799 7  36509494.633    36509489.398
 191673869.662 7 148214358.752 7  36808953.633    36808947.945
 18  5 16  3  6 18.0000000  0 11C02C05C04C08C01C10C13C09C06C03C07
 195912211.570 6 151491711.148 7  37622887.234    37622881.633
 206764526.308 6 159883434.817 6  39706971.664    39706968.102
 197701937.104 6 152875647.376 6  37966583.750    37966579.137
 198851393.710 6 153764515.484 6  38187317.063    38187313.637
 191544899.443 6 148114609.956 7  36784189.109    36784180.797
 196299726.482 7 151791362.968 7  37697299.141    37697296.059
 207562132.805 6 160500237.233 6  39860125.789    39860131.219
 192758204.268 7 149052884.348 7  37017170.594    37017168.141
 196958294.770 6 152300708.345 6  37823770.500    37823766.848
 190114483.528 6 147008546.141 7  36509491.602    36509486.008
 191673711.894 7 148214236.756 7  36808923.555    36808917.793
 18  5 16  3  6 19.0000000  0 11C02C05C04C08C01C10C13C09C06C03C07
 195912202.449 6 151491704.099 7  37622885.531    37622880.320
 206764517.992 6 159883428.388 6  39706970.266    39706966.121
 197701927.595 6 152875640.022 6  37966582.539    37966577.539
 198849685.677 6 153763194.719 6  38186989.500    38186985.594
 191544881.401 6 148114596.002 7  36784185.930    36784177.391
 196299676.641 7 151791324.426 7  37697289.117    37697286.227
 207560633.825 6 160499078.130 6  39859838.336    39859843.438
 192759533.117 7 149053911.902 7  37017425.516    37017423.371
 196959878.950 6 152301933.332 6  37824074.539    37824071.391
 190114464.601 6 147008531.507 7  36509487.852    36509482.203
 191673554.072 7 148214114.719 7  36808893.672    36808887.492
 18  5 16  3  6 20.0000000  0 11C02C05C04C08C01C10C13C09C06C03C07
 195912193.336 6 151491697.059 7  37622883.734    37622878.523
 206764509.749 6 159883422.023 6  39706969.094    39706965.086
 197701918.133 6 152875632.707 6  37966580.211    37966575.898
 198847977.688 6 153761873.999 6  38186660.914    38186657.531
 191544863.400 6 148114582.086 7  36784182.523    36784174.117
 196299626.725 7 151791285.827 7  37697279.469    37697276.719
 207559134.855 6 160497919.034 6  39859550.547    39859555.770
 192760862.127 7 149054939.577 7  37017680.805    37017678.512
 196961463.180 6 152303158.357 6  37824378.813    37824375.746
 190114445.721 6 147008516.907 7  36509483.961    36509478.219
 191673396.223 7 148213992.659 7  36808863.117    36808857.156
 18  5 16  3  6 21.0000000  0 11C02C05C04C08C01C10C13C09C06C03C07
 195912184.300 6 151491690.067 7  37622881.422    37622876.465
 206764501.547 5 159883415.678 6  39706966.961    39706963.398
 197701908.702 6 152875625.408 6  37966578.289    37966573.832
 198846269.870 6 153760553.411 6  38186333.602    38186329.660
 191544845.470 6 148114568.219 7  36784178.984    36784170.523
 196299576.835 7 151791247.242 7  37697270.047    37697267.191
 207557635.882 6 160496759.935 6  39859262.680    39859267.699
 192762191.360 7 149055967.426 7  37017936.375    37017933.840
 196963047.541 6 152304383.483 6  37824683.086    37824679.992
 190114426.918 6 147008502.368 7  36509480.695    36509474.844
 191673238.337 7 148213870.568 7  36808832.773    36808827.098
 18  5 16  3  6 22.0000000  0 11C02C05C04C08C01C10C13C09C06C03C07
 195912175.119 6 151491682.965 7  37622879.875    37622874.852
 206764493.220 6 159883409.235 6  39706965.305    39706961.738
 197701899.208 6 152875618.076 6  37966576.859    37966572.098
 198844561.984 6 153759232.763 6  38186005.391    38186001.688
 191544827.431 6 148114554.265 7  36784175.547    36784167.102
 196299526.707 7 151791208.477 7  37697260.672    37697257.570
 207556136.836 6 160495600.771 6  39858974.711    39858979.801
 192763520.589 7 149056995.273 7  37018191.211    37018189.320
 196964631.851 6 152305608.563 6  37824987.305    37824984.004
 190114408.002 6 147008487.737 7  36509476.859    36509471.277
 191673080.286 7 148213748.347 7  36808802.359    36808796.609
 18  5 16  3  6 23.0000000  0 11C02C05C04C08C01C10C13C09C06C03C07
 195912166.053 6 151491675.953 7  37622878.258    37622872.883
 206764484.995 5 159883402.865 5  39706963.656    39706960.703
 197701889.746 6 152875610.759 6  37966574.523    37966570.008
 198842854.184 6 153757912.183 6  38185677.461    38185673.824
 191544809.483 6 148114540.384 7  36784172.242    36784163.512
 196299476.585 7 151791169.723 7  37697250.953    37697247.891
 207554637.832 6 160494441.640 6  39858686.844    39858691.848
 192764850.033 7 149058023.278 7  37018446.438    37018445.000
 196966216.246 6 152306833.720 6  37825291.836    37825288.309
 190114389.139 6 147008473.153 7  36509473.203    36509467.648
 191672922.186 7 148213626.094 7  36808771.742    36808766.102
 18  5 16  3  6 24.0000000  0 11C02C05C04C08C01C10C13C09C06C03C07
 195912156.957 6 151491668.914 7  37622876.727    37622871.211
 206764476.783 6 159883396.510 5  39706962.898    39706958.809
 197701880.323 6 152875603.466 6  37966573.531    37966568.180
 198841146.452 6 153756591.650 6  38185349.758    38185346.020
 191544791.559 6 148114526.528 7  36784168.813    36784160.027
 196299426.421 7 151791130.936 7  37697241.094    37697238.160
 207553138.748 6 160493282.451 6  39858398.984    39858404.113
 192766179.618 7 149059051.391 7  37018701.719    37018699.844
 196967800.734 6 152308058.947 6  37825596.273    37825592.734
 190114370.319 6 147008458.595 7  36509469.336    36509464.121
 191672764.017 7 148213503.788 7  36808742.047    36808735.449
 18  5 16  3  6 25.0000000  0 11C02C05C04C08C01C10C13C09C06C03C07
 195912147.842 6 151491661.865 7  37622874.789    37622869.578
 206764468.494 6 159883390.100 5  39706961.344    39706957.355
 197701870.857 6 152875596.156 6  37966571.438    37966566.598
 198839438.723 6 153755271.131 6  38185021.547    38185018.215
 191544773.579 6 148114512.626 7  36784164.727    36784156.387
 196299376.083 7 151791092.014 7  37697231.281    37697228.863
 207551639.600 6 160492123.219 6  39858110.250    39858116.023
 192767509.288 7 149060079.575 7  37018957.336    37018955.215
 196969385.230 6 152309284.171 6  37825900.258    37825896.914
 190114351.425 6 147008443.989 7  36509466.211    36509460.383
 191672605.749 7 148213381.406 7  36808711.391    36808705.512
